%  GPST       latitude(deg) longitude(deg)  height(m)   Q  ns   sdn(m)   sde(m)   sdu(m)  sdne(m)  sdeu(m)  sdun(m) age(s)  ratio
2218 314999   44.399805216    8.937663087   103.5794   6   5   6.2659   6.3264  10.2616   4.1167   4.8705   4.4899   0.00    0.0
2218 315000   44.399803984    8.937663848   103.7557   6   5   4.4657   4.5107   7.3449   2.9440   3.4965   3.2230   0.00    0.0
2218 315001   44.399802591    8.937662262   103.9360   6   5   3.6590   3.6977   6.0294   2.4145   2.8738   2.6460   0.00    0.0
2218 315002   44.399802077    8.937662879   104.2099   6   5   3.1766   3.2119   5.2410   2.0970   2.5003   2.2991   0.00    0.0
2218 315003   44.399801717    8.937661603   104.3633   6   5   2.8470   2.8801   4.7012   1.8798   2.2443   2.0610   0.00    0.0
2218 315004   44.399802307    8.937660635   104.2871   6   5   2.6036   2.6353   4.3032   1.7192   2.0556   1.8850   0.00    0.0
2218 315005   44.399802075    8.937659198   104.1543   6   5   2.4145   2.4453   3.9945   1.5943   1.9093   1.7480   0.00    0.0
2218 315006   44.399801280    8.937658308   104.1264   6   5   2.2622   2.2924   3.7458   1.4937   1.7915   1.6375   0.00    0.0
2218 315007   44.399801590    8.937657882   104.0237   6   5   2.1361   2.1658   3.5401   1.4103   1.6940   1.5459   0.00    0.0
2218 315008   44.399801822    8.937657651   104.0574   6   5   2.0295   2.0589   3.3663   1.3398   1.6117   1.4685   0.00    0.0
2218 315009   44.399801803    8.937656707   104.0628   6   5   1.9378   1.9671   3.2170   1.2792   1.5411   1.4018   0.00    0.0
2218 315010   44.399801858    8.937656316   104.0551   6   5   1.8580   1.8871   3.0870   1.2264   1.4796   1.3437   0.00    0.0
2218 315011   44.399801881    8.937656110   104.1449   6   5   1.7876   1.8167   2.9724   1.1798   1.4254   1.2924   0.00    0.0
2218 315012   44.399802213    8.937655972   104.1798   6   5   1.7250   1.7540   2.8706   1.1383   1.3772   1.2467   0.00    0.0
2218 315013   44.399802347    8.937655911   104.2604   6   5   1.6688   1.6979   2.7793   1.1011   1.3341   1.2057   0.00    0.0
2218 315014   44.399802396    8.937655619   104.2741   6   5   1.6180   1.6471   2.6968   1.0675   1.2951   1.1686   0.00    0.0
2218 315015   44.399802384    8.937655642   104.4036   6   5   1.5718   1.6010   2.6218   1.0369   1.2597   1.1349   0.00    0.0
2218 315016   44.399802291    8.937655623   104.4942   6   5   1.5296   1.5589   2.5534   1.0089   1.2274   1.1040   0.00    0.0
2218 315017   44.399802303    8.937655619   104.5601   6   5   1.4908   1.5202   2.4905   0.9831   1.1978   1.0756   0.00    0.0
2218 315018   44.399802351    8.937655896   104.6568   6   5   1.4550   1.4845   2.4325   0.9594   1.1704   1.0494   0.00    0.0
2218 315019   44.399802209    8.937656085   104.7001   6   5   1.4218   1.4514   2.3787   0.9374   1.1451   1.0251   0.00    0.0
2218 315020   44.399802223    8.937656412   104.7648   6   5   1.3909   1.4207   2.3288   0.9169   1.1216   1.0025   0.00    0.0
2218 315021   44.399802105    8.937656761   104.7910   6   5   1.3621   1.3921   2.2823   0.8978   1.0997   0.9814   0.00    0.0
2218 315022   44.399802443    8.937657238   104.8649   6   5   1.3351   1.3653   2.2388   0.8799   1.0792   0.9616   0.00    0.0
2218 315023   44.399802461    8.937657456   104.8633   6   5   1.3099   1.3402   2.1980   0.8631   1.0600   0.9431   0.00    0.0
2218 315024   44.399802641    8.937657924   104.9214   6   5   1.2861   1.3166   2.1596   0.8473   1.0420   0.9256   0.00    0.0
2218 315025   44.399802826    8.937658396   104.9548   6   5   1.2636   1.2943   2.1235   0.8324   1.0250   0.9091   0.00    0.0
2218 315026   44.399802965    8.937658858   104.9503   6   5   1.2425   1.2733   2.0893   0.8183   1.0090   0.8935   0.00    0.0
2218 315027   44.399803037    8.937659121   104.9715   6   5   1.2224   1.2534   2.0571   0.8050   0.9938   0.8788   0.00    0.0
2218 315028   44.399803307    8.937659651   105.0115   6   5   1.2034   1.2346   2.0265   0.7923   0.9795   0.8648   0.00    0.0
2218 315029   44.399803519    8.937660238   105.0428   6   5   1.1853   1.2167   1.9974   0.7803   0.9658   0.8515   0.00    0.0
