%  GPST       latitude(deg) longitude(deg)  height(m)   Q  ns   sdn(m)   sde(m)   sdu(m)  sdne(m)  sdeu(m)  sdun(m) age(s)  ratio gterCor
2218 309481   44.399817039    8.937672388   106.3275   2   8   1.3124   1.4873   2.6479  -0.3537   0.6318  -0.8183   0.00    0.0      1
2218 309482   44.399816986    8.937672466   106.3778   2   8   0.9789   1.0924   1.9391  -0.2365   0.4412  -0.6037   0.00    0.0      1
2218 309483   44.399816930    8.937672717   106.3984   2   8   0.8144   0.9039   1.6020  -0.1876   0.3578  -0.5002   0.00    0.0      1
2218 309484   44.399816900    8.937672954   106.4489   2   8   0.7117   0.7882   1.3950  -0.1596   0.3085  -0.4362   0.00    0.0      1
2218 309485   44.399816860    8.937673123   106.4174   2   8   0.6397   0.7079   1.2511  -0.1410   0.2751  -0.3915   0.00    0.0      1
2218 309486   44.399817000    8.937673195   106.3996   2   8   0.5855   0.6480   1.1434  -0.1275   0.2505  -0.3580   0.00    0.0      1
2218 309487   44.399816851    8.937673187   106.4324   2   8   0.5427   0.6011   1.0588  -0.1172   0.2315  -0.3316   0.00    0.0      1
2218 309488   44.399816635    8.937673125   106.4793   2   8   0.5078   0.5631   0.9899  -0.1089   0.2161  -0.3100   0.00    0.0      1
2218 309489   44.399816585    8.937673092   106.4934   2   8   0.4785   0.5315   0.9323  -0.1021   0.2034  -0.2920   0.00    0.0      1
2218 309490   44.399816430    8.937672933   106.4532   2   8   0.4534   0.5046   0.8832  -0.0964   0.1926  -0.2765   0.00    0.0      1
2218 309491   44.399816470    8.937672811   106.4045   2   8   0.4316   0.4815   0.8405  -0.0915   0.1833  -0.2631   0.00    0.0      1
2218 309492   44.399816755    8.937672643   106.3506   2   8   0.4124   0.4612   0.8029  -0.0872   0.1752  -0.2513   0.00    0.0      1
2218 309493   44.399816966    8.937672494   106.3094   2   8   0.3952   0.4434   0.7694  -0.0834   0.1680  -0.2407   0.00    0.0      1
2218 309494   44.399817041    8.937672359   106.2923   2   8   0.3798   0.4274   0.7393  -0.0800   0.1616  -0.2312   0.00    0.0      1
2218 309495   44.399817063    8.937672266   106.2652   2   8   0.3657   0.4130   0.7120  -0.0770   0.1558  -0.2226   0.00    0.0      1
2218 309496   44.399817292    8.937672233   106.2808   2   8   0.3529   0.4000   0.6871  -0.0742   0.1506  -0.2147   0.00    0.0      1
2218 309497   44.399817335    8.937672119   106.2743   2   8   0.3411   0.3881   0.6641  -0.0717   0.1458  -0.2074   0.00    0.0      1
2218 309498   44.399817363    8.937672061   106.2725   2   8   0.3301   0.3772   0.6429  -0.0694   0.1414  -0.2006   0.00    0.0      1
2218 309499   44.399817402    8.937671936   106.2761   2   8   0.3200   0.3672   0.6232  -0.0673   0.1373  -0.1944   0.00    0.0      1
2218 309500   44.399817336    8.937671812   106.2431   2   8   0.3104   0.3579   0.6048  -0.0654   0.1336  -0.1885   0.00    0.0      1
2218 309501   44.399817389    8.937671796   106.2422   2   8   0.3015   0.3493   0.5875  -0.0635   0.1300  -0.1830   0.00    0.0      1
2218 309502   44.399817369    8.937671813   106.2282   2   8   0.2931   0.3413   0.5713  -0.0618   0.1268  -0.1779   0.00    0.0      1
2218 309503   44.399817247    8.937671705   106.2246   2   8   0.2852   0.3337   0.5560  -0.0602   0.1237  -0.1730   0.00    0.0      1
2218 309504   44.399817388    8.937671640   106.2172   2   8   0.2777   0.3267   0.5415  -0.0587   0.1208  -0.1684   0.00    0.0      1
2218 309505   44.399817410    8.937671599   106.2252   2   8   0.2706   0.3201   0.5278  -0.0573   0.1180  -0.1640   0.00    0.0      1
2218 309506   44.399817353    8.937671538   106.2150   2   8   0.2638   0.3138   0.5147  -0.0560   0.1154  -0.1598   0.00    0.0      1
2218 309507   44.399817391    8.937671550   106.2074   2   8   0.2573   0.3079   0.5023  -0.0547   0.1130  -0.1558   0.00    0.0      1
2218 309508   44.399817328    8.937671564   106.2602   2   8   0.2512   0.3023   0.4904  -0.0535   0.1107  -0.1520   0.00    0.0      1
2218 309509   44.399817448    8.937671514   106.2375   2   8   0.2452   0.2970   0.4790  -0.0524   0.1084  -0.1484   0.00    0.0      1
2218 309510   44.399817529    8.937671568   106.2425   2   8   0.2396   0.2920   0.4681  -0.0513   0.1063  -0.1449   0.00    0.0      1
2218 309511   44.399817394    8.937671582   106.2544   2   8   0.2341   0.2872   0.4576  -0.0503   0.1043  -0.1416   0.00    0.0      1
2218 309512   44.399817393    8.937671540   106.2988   2   8   0.2289   0.2826   0.4476  -0.0493   0.1024  -0.1383   0.00    0.0      1
2218 309513   44.399817405    8.937671517   106.3212   2   8   0.2239   0.2782   0.4379  -0.0483   0.1005  -0.1352   0.00    0.0      1
2218 309514   44.399817518    8.937671570   106.2979   2   8   0.2190   0.2740   0.4286  -0.0474   0.0987  -0.1323   0.00    0.0      1
2218 309515   44.399817613    8.937671601   106.2769   2   8   0.2144   0.2700   0.4196  -0.0466   0.0971  -0.1294   0.00    1.2      1
2218 309516   44.399817458    8.937671545   106.2602   2   8   0.2099   0.2662   0.4110  -0.0457   0.0954  -0.1266   0.00    1.0      1
2218 309517   44.399818130    8.937671709   106.2321   2   8   0.2055   0.2625   0.4026  -0.0450   0.0938  -0.1240   0.00    1.1      1
2218 309518   44.399818375    8.937671826   106.2612   2   8   0.2013   0.2589   0.3945  -0.0442   0.0923  -0.1214   0.00    1.2      1
2218 309519   44.399818617    8.937671918   106.2672   2   8   0.1972   0.2555   0.3867  -0.0435   0.0909  -0.1189   0.00    1.4      1
2218 309520   44.399818887    8.937671987   106.2909   2   8   0.1933   0.2522   0.3791  -0.0428   0.0895  -0.1165   0.00    1.0      1
2218 309521   44.399819087    8.937672035   106.2675   2   8   0.1895   0.2490   0.3717  -0.0421   0.0881  -0.1141   0.00    1.3      1
2218 309522   44.399819256    8.937672060   106.2994   2   8   0.1858   0.2459   0.3646  -0.0415   0.0868  -0.1118   0.00    1.1      1
2218 309523   44.399819425    8.937672119   106.3156   2   8   0.1822   0.2430   0.3577  -0.0408   0.0855  -0.1096   0.00    1.5      1
2218 309524   44.399819566    8.937672154   106.2942   2   8   0.1787   0.2401   0.3510  -0.0402   0.0843  -0.1075   0.00    1.0      1
2218 309525   44.399819815    8.937672184   106.2953   2   8   0.1753   0.2373   0.3445  -0.0396   0.0831  -0.1054   0.00    1.1      1
2218 309526   44.399819814    8.937672311   106.2925   2   8   0.1720   0.2347   0.3382  -0.0390   0.0819  -0.1034   0.00    1.2      1
2218 309527   44.399819696    8.937672370   106.2860   2   8   0.1688   0.2321   0.3320  -0.0385   0.0808  -0.1015   0.00    1.4      1
2218 309528   44.399819715    8.937672445   106.2856   2   8   0.1657   0.2295   0.3261  -0.0380   0.0797  -0.0996   0.00    1.1      1
2218 309529   44.399819737    8.937672504   106.2800   2   8   0.1627   0.2271   0.3203  -0.0375   0.0787  -0.0977   0.00    1.4      1
2218 309530   44.399819844    8.937672563   106.2884   2   8   0.1598   0.2247   0.3146  -0.0370   0.0777  -0.0959   0.00    1.1      1
2218 309531   44.399819877    8.937672611   106.2472   2   8   0.1569   0.2224   0.3091  -0.0365   0.0767  -0.0942   0.00    1.0      1
2218 309532   44.399819766    8.937672673   106.2042   2   8   0.1542   0.2201   0.3038  -0.0361   0.0757  -0.0926   1.00    1.3      1
2218 309533   44.399819910    8.937672708   106.1825   2   8   0.1515   0.2180   0.2986  -0.0356   0.0748  -0.0909   0.00    1.1      1
2218 309534   44.399819963    8.937672813   106.1227   2   8   0.1489   0.2158   0.2935  -0.0352   0.0739  -0.0893   0.00    1.3      1
2218 309535   44.399820021    8.937672965   106.1685   2   8   0.1463   0.2137   0.2886  -0.0347   0.0730  -0.0877   0.00    1.2      1
2218 309536   44.399819937    8.937673035   106.1201   2   8   0.1438   0.2117   0.2837  -0.0343   0.0721  -0.0862   0.00    1.3      1
2218 309537   44.399819864    8.937673109   106.1085   2   8   0.1414   0.2097   0.2790  -0.0339   0.0713  -0.0847   0.00    1.1      1
2218 309538   44.399819837    8.937673187   106.1113   2   8   0.1390   0.2078   0.2744  -0.0336   0.0705  -0.0833   0.00    1.3      1
2218 309539   44.399819827    8.937673286   106.1189   2   8   0.1367   0.2059   0.2700  -0.0332   0.0696  -0.0818   0.00    1.0      1
2218 309540   44.399819792    8.937673369   106.0899   2   8   0.1344   0.2041   0.2656  -0.0328   0.0689  -0.0805   0.00    1.4      1
2218 309541   44.399819767    8.937673459   106.0597   2   8   0.1322   0.2023   0.2613  -0.0325   0.0681  -0.0791   0.00    1.1      1
2218 309542   44.399819701    8.937673556   106.0427   2   8   0.1301   0.2006   0.2572  -0.0321   0.0674  -0.0778   0.00    1.3      1
2218 309543   44.399819694    8.937673663   106.0439   2   8   0.1280   0.1989   0.2531  -0.0318   0.0667  -0.0766   0.00    1.2      1
2218 309544   44.399819726    8.937673772   106.0342   2   8   0.1259   0.1972   0.2491  -0.0315   0.0659  -0.0753   0.00    1.3      1
2218 309545   44.399819638    8.937673930   106.0163   2   8   0.1240   0.1955   0.2453  -0.0312   0.0653  -0.0741   0.00    1.2      1
2218 309546   44.399819592    8.937674044   105.9827   2   8   0.1220   0.1939   0.2415  -0.0309   0.0646  -0.0729   0.00    1.2      1
2218 309547   44.399819546    8.937674170   105.9738   2   8   0.1201   0.1924   0.2378  -0.0305   0.0639  -0.0718   0.00    1.6      1
2218 309548   44.399819501    8.937674302   105.9812   2   8   0.1182   0.1908   0.2342  -0.0302   0.0633  -0.0706   0.00    1.0      1
2218 309549   44.399819545    8.937674442   105.9896   2   8   0.1164   0.1893   0.2307  -0.0300   0.0627  -0.0695   0.00    1.2      1
2218 309550   44.399819500    8.937674499   105.9664   2   8   0.1146   0.1879   0.2272  -0.0297   0.0621  -0.0685   0.00    1.2      1
2218 309551   44.399819511    8.937674643   105.9503   2   8   0.1129   0.1864   0.2238  -0.0294   0.0615  -0.0674   0.00    1.2      1
2218 309552   44.399819598    8.937674711   105.9232   2   8   0.1112   0.1850   0.2205  -0.0292   0.0609  -0.0664   0.00    1.2      1
2218 309553   44.399819555    8.937674787   105.8968   2   8   0.1096   0.1836   0.2173  -0.0289   0.0603  -0.0654   0.00    1.2      1
2218 309554   44.399819560    8.937674836   105.8803   2   8   0.1079   0.1822   0.2142  -0.0287   0.0597  -0.0644   0.00    1.3      1
2218 309555   44.399819565    8.937674927   105.8653   2   8   0.1064   0.1809   0.2111  -0.0284   0.0592  -0.0635   0.00    1.8      1
2218 309556   44.399819575    8.937675046   105.8527   2   8   0.1048   0.1796   0.2081  -0.0282   0.0587  -0.0625   0.00    1.0      1
2218 309557   44.399819512    8.937675096   105.8243   2   8   0.1033   0.1783   0.2051  -0.0280   0.0581  -0.0616   0.00    1.2      1
2218 309558   44.399819453    8.937675141   105.7989   2   8   0.1018   0.1770   0.2022  -0.0277   0.0576  -0.0607   0.00    1.3      1
2218 309559   44.399819411    8.937675197   105.7817   2   8   0.1004   0.1757   0.1994  -0.0276   0.0571  -0.0599   0.00    1.2      1
2218 309560   44.399819329    8.937675283   105.7996   2   8   0.0990   0.1745   0.1967  -0.0273   0.0566  -0.0590   0.00    1.3      1
2218 309561   44.399819175    8.937675351   105.7702   2   8   0.0976   0.1733   0.1940  -0.0271   0.0561  -0.0582   0.00    1.5      1
2218 309562   44.399819175    8.937675405   105.7510   2   8   0.0962   0.1721   0.1913  -0.0269   0.0556  -0.0574   0.00    2.0      1
2218 309563   44.399819104    8.937675536   105.7326   2   8   0.0949   0.1709   0.1887  -0.0267   0.0552  -0.0566   0.00    1.0      1
2218 309564   44.399819024    8.937675570   105.7112   2   8   0.0936   0.1698   0.1862  -0.0265   0.0547  -0.0558   0.00    1.2      1
2218 309565   44.399819010    8.937675623   105.6899   2   8   0.0923   0.1687   0.1837  -0.0263   0.0543  -0.0550   0.00    1.4      1
2218 309566   44.399818979    8.937675673   105.6788   2   8   0.0911   0.1676   0.1813  -0.0261   0.0538  -0.0543   0.00    1.0      1
2218 309567   44.399819013    8.937675725   105.6778   2   8   0.0899   0.1665   0.1789  -0.0259   0.0534  -0.0535   0.00    1.3      1
2218 309568   44.399818927    8.937675790   105.6662   2   8   0.0887   0.1654   0.1765  -0.0258   0.0530  -0.0528   0.00    1.2      1
2218 309569   44.399818893    8.937675837   105.6561   2   8   0.0875   0.1643   0.1742  -0.0256   0.0526  -0.0521   0.00    1.6      1
2218 309570   44.399818881    8.937675898   105.6422   2   8   0.0864   0.1633   0.1720  -0.0254   0.0522  -0.0514   0.00    2.0      1
2218 309571   44.399818847    8.937675903   105.6393   2   8   0.0852   0.1622   0.1698  -0.0253   0.0518  -0.0508   0.00    1.0      1
2218 309572   44.399818719    8.937675921   105.6196   2   8   0.0841   0.1612   0.1676  -0.0251   0.0514  -0.0501   0.00    1.2      1
2218 309573   44.399818638    8.937675937   105.6154   2   8   0.0831   0.1602   0.1655  -0.0249   0.0510  -0.0495   0.00    1.4      1
2218 309574   44.399818630    8.937675969   105.6208   2   8   0.0820   0.1592   0.1635  -0.0248   0.0506  -0.0488   0.00    1.2      1
2218 309575   44.399818538    8.937676044   105.6212   2   8   0.0810   0.1583   0.1614  -0.0246   0.0502  -0.0482   0.00    1.5      1
2218 309576   44.399818509    8.937676058   105.6491   2   8   0.0799   0.1573   0.1594  -0.0245   0.0499  -0.0476   0.00    1.7      1
2218 309577   44.399818505    8.937676100   105.6472   2   8   0.0790   0.1564   0.1575  -0.0243   0.0495  -0.0470   0.00    2.1      1
2218 309578   44.399818488    8.937676202   105.6443   2   8   0.0780   0.1554   0.1555  -0.0241   0.0491  -0.0465   0.00    1.0      1
2218 309579   44.399818526    8.937676263   105.6519   2   8   0.0770   0.1545   0.1537  -0.0240   0.0488  -0.0459   0.00    1.1      1
2218 309580   44.399818473    8.937676326   105.6581   2   8   0.0761   0.1536   0.1518  -0.0239   0.0484  -0.0453   0.00    1.5      1
2218 309581   44.399818391    8.937676399   105.6621   2   8   0.0752   0.1527   0.1500  -0.0238   0.0481  -0.0448   0.00    1.1      1
2218 309582   44.399818345    8.937676460   105.6710   2   8   0.0743   0.1518   0.1482  -0.0236   0.0478  -0.0442   0.00    1.4      1
2218 309583   44.399818263    8.937676520   105.6790   2   8   0.0734   0.1509   0.1465  -0.0234   0.0474  -0.0437   0.00    1.1      1
2218 309584   44.399818150    8.937676565   105.6743   2   8   0.0725   0.1501   0.1448  -0.0234   0.0471  -0.0432   0.00    1.9      1
2218 309585   44.399818061    8.937676597   105.6814   2   8   0.0717   0.1492   0.1431  -0.0232   0.0468  -0.0427   0.00    1.0      1
2218 309586   44.399818019    8.937676640   105.6962   2   8   0.0708   0.1484   0.1414  -0.0230   0.0465  -0.0422   0.00    1.9      1
2218 309587   44.399817897    8.937676649   105.6982   2   8   0.0700   0.1475   0.1398  -0.0229   0.0462  -0.0417   0.00    1.3      1
2218 309588   44.399817786    8.937676722   105.6934   2   8   0.0692   0.1467   0.1382  -0.0228   0.0459  -0.0412   0.00    2.0      1
2218 309589   44.399817788    8.937676721   105.7121   2   8   0.0684   0.1459   0.1367  -0.0227   0.0456  -0.0407   0.00    1.7      1
2218 309590   44.399817685    8.937676828   105.6903   2   8   0.0676   0.1451   0.1351  -0.0226   0.0453  -0.0403   0.00    2.0      1
2218 309591   44.399817679    8.937676838   105.7196   2   8   0.0669   0.1443   0.1336  -0.0225   0.0450  -0.0398   0.00    1.4      1
2218 309592   44.399817634    8.937676866   105.7161   2   8   0.0661   0.1435   0.1321  -0.0224   0.0447  -0.0394   0.00    2.0      1
2218 309593   44.399817574    8.937676882   105.7114   2   8   0.0654   0.1427   0.1307  -0.0223   0.0444  -0.0389   0.00    2.0      1
2218 309594   44.399817521    8.937676925   105.7056   2   8   0.0647   0.1420   0.1293  -0.0222   0.0441  -0.0385   0.00    2.0      1
2218 309595   44.399817448    8.937676932   105.7036   2   8   0.0639   0.1412   0.1279  -0.0220   0.0439  -0.0381   0.00    2.4      1
2218 309596   44.399817364    8.937677039   105.7033   2   8   0.0633   0.1405   0.1265  -0.0220   0.0436  -0.0377   0.00    1.3      1
2218 309597   44.399817313    8.937677120   105.6987   2   8   0.0626   0.1397   0.1251  -0.0218   0.0433  -0.0373   0.00    1.0      1
2218 309598   44.399817261    8.937677205   105.6885   2   8   0.0619   0.1390   0.1238  -0.0217   0.0431  -0.0369   0.00    1.6      1
2218 309599   44.399817169    8.937677272   105.6778   2   8   0.0613   0.1383   0.1225  -0.0216   0.0428  -0.0365   0.00    1.1      1
2218 309600   44.399817096    8.937677350   105.6630   2   8   0.0606   0.1375   0.1212  -0.0215   0.0426  -0.0361   0.00    1.6      1
2218 309601   44.399817036    8.937677407   105.6594   2   8   0.0600   0.1368   0.1199  -0.0214   0.0423  -0.0357   0.00    1.0      1
2218 309602   44.399816993    8.937677450   105.6555   2   8   0.0593   0.1361   0.1187  -0.0213   0.0421  -0.0353   0.00    1.7      1
2218 309603   44.399816939    8.937677457   105.6533   2   8   0.0587   0.1354   0.1175  -0.0212   0.0418  -0.0350   0.00    1.1      1
2218 309604   44.399816879    8.937677504   105.6250   2   8   0.0581   0.1347   0.1162  -0.0211   0.0416  -0.0346   0.00    1.7      1
2218 309605   44.399816846    8.937677563   105.6195   2   8   0.0575   0.1341   0.1151  -0.0210   0.0413  -0.0343   0.00    2.0      1
2218 309606   44.399816785    8.937677645   105.6161   2   8   0.0569   0.1334   0.1139  -0.0209   0.0411  -0.0339   0.00    1.7      1
2218 309607   44.399816752    8.937677689   105.6197   2   8   0.0564   0.1327   0.1128  -0.0209   0.0409  -0.0335   0.00    1.7      1
2218 309608   44.399816754    8.937677787   105.6211   2   8   0.0558   0.1321   0.1116  -0.0207   0.0406  -0.0332   0.00    1.9      1
2218 309609   44.399816743    8.937677787   105.6174   2   8   0.0552   0.1314   0.1105  -0.0206   0.0404  -0.0329   0.00    2.5      1
2218 309610   44.399816686    8.937677805   105.6194   2   8   0.0546   0.1307   0.1094  -0.0205   0.0402  -0.0326   0.00    1.4      1
2218 309611   44.399816678    8.937677793   105.6252   2   8   0.0541   0.1301   0.1083  -0.0205   0.0399  -0.0323   0.00    1.1      1
2218 309612   44.399816645    8.937677857   105.6255   2   8   0.0536   0.1295   0.1073  -0.0204   0.0397  -0.0319   0.00    1.8      1
2218 309613   44.399816580    8.937677877   105.6306   2   8   0.0531   0.1288   0.1063  -0.0203   0.0395  -0.0316   0.00    1.8      1
2218 309614   44.399816562    8.937677917   105.6223   2   8   0.0525   0.1282   0.1052  -0.0202   0.0393  -0.0313   0.00    2.2      1
2218 309625   44.399816546    8.937678008   105.6292   2   8   0.0519   0.1276   0.1039  -0.0201   0.0388  -0.0309   1.00    1.8      1
2218 309626   44.399816490    8.937678036   105.6257   2   8   0.0513   0.1269   0.1026  -0.0200   0.0386  -0.0305   0.00    1.9      1
2218 309627   44.399816445    8.937678037   105.6180   2   8   0.0507   0.1262   0.1014  -0.0200   0.0383  -0.0301   0.00    1.9      1
2218 309628   44.399816421    8.937678108   105.6198   2   8   0.0500   0.1255   0.1002  -0.0199   0.0381  -0.0298   0.00    1.0      1
2218 309629   44.399816415    8.937678084   105.6218   2   8   0.0495   0.1249   0.0990  -0.0198   0.0379  -0.0294   0.00    1.9      1
2218 309630   44.399816381    8.937678115   105.6166   2   8   0.0489   0.1242   0.0979  -0.0197   0.0377  -0.0291   0.00    1.1      1
2218 309631   44.399816336    8.937678121   105.6143   2   8   0.0483   0.1236   0.0968  -0.0196   0.0375  -0.0288   0.00    2.0      1
2218 309632   44.399816272    8.937678141   105.6264   2   8   0.0478   0.1230   0.0957  -0.0195   0.0373  -0.0285   0.00    2.0      1
2218 309633   44.399816241    8.937678156   105.6236   2   8   0.0473   0.1223   0.0946  -0.0195   0.0371  -0.0282   0.00    1.3      1
2218 309634   44.399816203    8.937678199   105.6131   2   8   0.0467   0.1217   0.0936  -0.0194   0.0369  -0.0279   0.00    1.8      1
2218 309635   44.399816225    8.937678227   105.6089   2   8   0.0462   0.1211   0.0926  -0.0193   0.0367  -0.0276   0.00    1.3      1
2218 309636   44.399816263    8.937678251   105.6021   2   8   0.0457   0.1205   0.0916  -0.0193   0.0365  -0.0273   0.00    2.4      1
2218 309637   44.399816253    8.937678326   105.6056   2   8   0.0452   0.1199   0.0907  -0.0192   0.0363  -0.0270   0.00    1.1      1
2218 309638   44.399816288    8.937678359   105.6044   2   8   0.0448   0.1193   0.0897  -0.0191   0.0361  -0.0267   0.00    2.5      1
2218 309639   44.399816285    8.937678369   105.6009   2   8   0.0443   0.1187   0.0888  -0.0190   0.0359  -0.0265   0.00    1.9      1
2218 309640   44.399816304    8.937678432   105.6052   2   8   0.0439   0.1181   0.0879  -0.0190   0.0357  -0.0262   0.00    2.5      1
2218 309641   44.399816282    8.937678403   105.6052   2   8   0.0434   0.1175   0.0870  -0.0189   0.0356  -0.0260   0.00    2.7      1
2218 309642   44.399816273    8.937678420   105.5963   2   8   0.0430   0.1170   0.0862  -0.0189   0.0354  -0.0257   0.00    2.6      1
2218 309643   44.399816292    8.937678424   105.5964   2   8   0.0426   0.1164   0.0853  -0.0188   0.0352  -0.0254   0.00    1.0      1
2218 309644   44.399816289    8.937678451   105.5959   2   8   0.0421   0.1158   0.0845  -0.0187   0.0350  -0.0252   0.00    2.6      1
2218 309645   44.399816270    8.937678435   105.6001   2   8   0.0417   0.1153   0.0837  -0.0186   0.0348  -0.0249   0.00    2.6      1
2218 309646   44.399816230    8.937678405   105.5977   2   8   0.0413   0.1147   0.0829  -0.0186   0.0347  -0.0247   0.00    2.6      1
2218 309647   44.399816199    8.937678425   105.5991   2   8   0.0409   0.1142   0.0821  -0.0185   0.0345  -0.0245   0.00    2.8      1
2218 309648   44.399816208    8.937678371   105.6038   2   8   0.0406   0.1137   0.0813  -0.0185   0.0343  -0.0243   0.00    1.6      1
2218 309649   44.399816202    8.937678359   105.5949   2   8   0.0402   0.1131   0.0806  -0.0184   0.0341  -0.0241   0.00    1.4      1
2218 309650   44.399816197    8.937678315   105.5891   2   8   0.0398   0.1126   0.0798  -0.0183   0.0340  -0.0238   0.00    2.2      1
2218 309651   44.399816178    8.937678285   105.5918   2   8   0.0394   0.1121   0.0791  -0.0183   0.0338  -0.0236   0.00    1.3      1
2218 309652   44.399816152    8.937678307   105.5829   2   8   0.0391   0.1115   0.0784  -0.0182   0.0336  -0.0234   0.00    2.2      1
2218 309653   44.399816149    8.937678258   105.5864   2   8   0.0387   0.1110   0.0777  -0.0182   0.0335  -0.0232   0.00    1.7      1
2218 309654   44.399816126    8.937678253   105.5804   2   8   0.0384   0.1105   0.0770  -0.0181   0.0333  -0.0230   0.00    2.3      1
2218 309655   44.399816124    8.937678272   105.5808   2   8   0.0381   0.1100   0.0764  -0.0180   0.0332  -0.0228  -1.00    1.3      1
2218 309656   44.399816157    8.937678200   105.5834   2   8   0.0378   0.1095   0.0757  -0.0180   0.0330  -0.0226  -1.00    2.3      1
2218 309657   44.399816141    8.937678177   105.5797   2   8   0.0375   0.1090   0.0751  -0.0179   0.0328  -0.0224   0.00    2.9      1
2218 309658   44.399816162    8.937678134   105.5696   2   8   0.0371   0.1085   0.0744  -0.0178   0.0327  -0.0223   0.00    2.3      1
2218 309659   44.399813114    8.937673547   105.7418   1   8   0.0051   0.0055   0.0096  -0.0003   0.0021  -0.0030   0.00    3.1      1
2218 309660   44.399813114    8.937673566   105.7411   1   8   0.0048   0.0055   0.0095  -0.0003   0.0018  -0.0034   0.00    3.1      1
2218 309661   44.399813131    8.937673556   105.7442   1   8   0.0047   0.0054   0.0095  -0.0009   0.0018  -0.0033   0.00    3.1      1
2218 309662   44.399813106    8.937673690   105.7470   1   8   0.0050   0.0053   0.0096   0.0009   0.0018  -0.0029   0.00    3.8      1
2218 309663   44.399813080    8.937673703   105.7503   1   8   0.0049   0.0055   0.0096  -0.0013   0.0019  -0.0030   0.00    3.9      1
2218 309664   44.399813070    8.937673782   105.7540   1   8   0.0050   0.0055   0.0096  -0.0007   0.0020  -0.0029   0.00    3.0      1
2218 309665   44.399813055    8.937673791   105.7538   1   8   0.0046   0.0054   0.0096  -0.0006   0.0020  -0.0032   0.00    3.0      1
2218 309666   44.399813028    8.937673779   105.7533   1   8   0.0047   0.0052   0.0096  -0.0008   0.0018  -0.0031   0.00    3.1      1
2218 309667   44.399813057    8.937673810   105.7545   1   8   0.0049   0.0054   0.0095  -0.0009   0.0020  -0.0030   0.00    3.1      1
2218 309668   44.399813047    8.937673806   105.7523   1   8   0.0050   0.0055   0.0096  -0.0013   0.0019  -0.0030   0.00    3.1      1
2218 309669   44.399813068    8.937673916   105.7418   1   8   0.0050   0.0054   0.0096  -0.0007   0.0020  -0.0029   0.00    3.2      1
2218 309670   44.399813079    8.937673934   105.7437   1   8   0.0050   0.0054   0.0095   0.0001   0.0019  -0.0029   0.00    3.2      1
2218 309671   44.399813066    8.937673924   105.7465   1   8   0.0048   0.0055   0.0096  -0.0012   0.0021  -0.0031   0.00    3.3      1
2218 309672   44.399813042    8.937673965   105.7423   1   8   0.0049   0.0053   0.0095   0.0007   0.0018  -0.0030   0.00    3.3      1
2218 309673   44.399813064    8.937673958   105.7478   1   8   0.0053   0.0054   0.0096  -0.0009   0.0019  -0.0026   0.00    3.3      1
2218 309674   44.399813063    8.937673967   105.7429   1   8   0.0052   0.0053   0.0096  -0.0007   0.0021  -0.0028   0.00    3.3      1
2218 309675   44.399813081    8.937673903   105.7435   1   8   0.0047   0.0054   0.0095   0.0010   0.0019  -0.0031   0.00    3.3      1
2218 309676   44.399813059    8.937673924   105.7461   1   8   0.0050   0.0054   0.0096   0.0004   0.0019  -0.0030   0.00    3.4      1
2218 309677   44.399813089    8.937673941   105.7449   1   8   0.0049   0.0055   0.0096  -0.0004   0.0021  -0.0029   0.00    3.4      1
2218 309678   44.399813082    8.937673956   105.7497   1   8   0.0049   0.0055   0.0096  -0.0007   0.0021  -0.0032   0.00    3.4      1
2218 309679   44.399813066    8.937673944   105.7426   1   8   0.0052   0.0054   0.0097  -0.0009   0.0020  -0.0029   0.00    3.5      1
2218 309680   44.399813065    8.937673970   105.7468   1   8   0.0048   0.0053   0.0095   0.0003   0.0017  -0.0031   0.00    3.5      1
2218 309681   44.399813068    8.937673936   105.7446   1   8   0.0052   0.0053   0.0096  -0.0002   0.0020  -0.0027   0.00    3.5      1
2218 309682   44.399813094    8.937673934   105.7463   1   8   0.0051   0.0055   0.0096  -0.0003   0.0020  -0.0028   0.00    3.5      1
2218 309683   44.399813074    8.937673916   105.7432   1   8   0.0051   0.0054   0.0095  -0.0013   0.0018  -0.0029   0.00    3.6      1
2218 309684   44.399813102    8.937673914   105.7442   1   8   0.0050   0.0055   0.0096  -0.0010   0.0019  -0.0028   0.00    3.6      1
2218 309685   44.399813071    8.937673930   105.7461   1   8   0.0051   0.0056   0.0096  -0.0012   0.0021  -0.0026   0.00    3.6      1
2218 309686   44.399813102    8.937673928   105.7443   1   8   0.0050   0.0055   0.0097   0.0004   0.0020  -0.0029   1.00    3.6      1
2218 309687   44.399813073    8.937673921   105.7456   1   8   0.0048   0.0053   0.0095  -0.0011   0.0021  -0.0030   0.00    3.7      1
2218 309688   44.399813079    8.937673909   105.7443   1   8   0.0050   0.0055   0.0096   0.0002   0.0017  -0.0030   0.00    3.7      1
2218 309689   44.399813066    8.937673938   105.7481   1   8   0.0050   0.0054   0.0096  -0.0012   0.0017  -0.0030   0.00    3.7      1
2218 309690   44.399813094    8.937673892   105.7474   1   8   0.0052   0.0057   0.0096  -0.0013   0.0021  -0.0027   0.00    3.7      1
2218 309691   44.399813085    8.937673889   105.7492   1   8   0.0047   0.0054   0.0095  -0.0011   0.0019  -0.0032   0.00    3.7      1
2218 309692   44.399813074    8.937673875   105.7471   1   8   0.0050   0.0055   0.0096  -0.0012   0.0020  -0.0030   0.00    3.7      1
2218 309693   44.399813084    8.937673910   105.7470   1   8   0.0050   0.0053   0.0096  -0.0009   0.0020  -0.0030   0.00    3.7      1
2218 309694   44.399813074    8.937673923   105.7502   1   8   0.0049   0.0053   0.0095  -0.0015   0.0020  -0.0030   0.00    3.7      1
2218 309695   44.399813106    8.937673889   105.7451   1   8   0.0052   0.0054   0.0096  -0.0010   0.0013  -0.0028   0.00    3.7      1
2218 309696   44.399813081    8.937673915   105.7501   1   8   0.0053   0.0055   0.0096  -0.0008   0.0019  -0.0027   0.00    3.7      1
2218 309697   44.399813081    8.937673892   105.7511   1   8   0.0050   0.0055   0.0096  -0.0014   0.0022  -0.0031   0.00    3.7      1
2218 309698   44.399813093    8.937673895   105.7491   1   8   0.0050   0.0053   0.0095  -0.0002   0.0014  -0.0029   0.00    3.7      1
2218 309699   44.399813066    8.937673914   105.7521   1   8   0.0050   0.0055   0.0096  -0.0009   0.0019  -0.0030   0.00    3.7      1
2218 309700   44.399813061    8.937673909   105.7509   1   8   0.0050   0.0054   0.0096  -0.0007   0.0020  -0.0030   0.00    3.7      1
2218 309701   44.399813058    8.937673884   105.7497   1   8   0.0048   0.0054   0.0096  -0.0004   0.0020  -0.0030   0.00    3.7      1
2218 309702   44.399813055    8.937673909   105.7519   1   8   0.0051   0.0055   0.0096  -0.0009   0.0021  -0.0028   0.00    3.7      1
2218 309703   44.399813073    8.937673922   105.7540   1   8   0.0044   0.0052   0.0095   0.0011   0.0018  -0.0033   0.00    3.7      1
2218 309704   44.399813046    8.937673903   105.7545   1   8   0.0048   0.0053   0.0096  -0.0003   0.0015  -0.0030   0.00    3.7      1
2218 309705   44.399813083    8.937673903   105.7507   1   8   0.0050   0.0052   0.0096  -0.0006   0.0015  -0.0029   0.00    3.7      1
2218 309706   44.399813068    8.937673945   105.7493   1   8   0.0053   0.0054   0.0096  -0.0003   0.0015  -0.0027   0.00    3.7      1
2218 309707   44.399813059    8.937673923   105.7492   1   8   0.0050   0.0053   0.0096   0.0017   0.0018  -0.0027   0.00    3.7      1
2218 309708   44.399813086    8.937673899   105.7524   1   8   0.0051   0.0053   0.0096   0.0008   0.0016  -0.0027   0.00    3.7      1
2218 309709   44.399813085    8.937673907   105.7502   1   8   0.0048   0.0055   0.0096   0.0012   0.0017  -0.0030   0.00    3.7      1
2218 309710   44.399813089    8.937673898   105.7530   1   8   0.0050   0.0054   0.0096  -0.0005   0.0018  -0.0029   0.00    3.7      1
2218 309711   44.399813064    8.937673904   105.7529   1   8   0.0049   0.0055   0.0096   0.0006   0.0022  -0.0030   0.00    3.7      1
2218 309712   44.399813089    8.937673905   105.7498   1   8   0.0049   0.0053   0.0096  -0.0004   0.0016  -0.0030   0.00    3.7      1
2218 309713   44.399813070    8.937673893   105.7512   1   8   0.0047   0.0054   0.0094   0.0006   0.0015  -0.0032   0.00    3.8      1
2218 309714   44.399813078    8.937673899   105.7477   1   8   0.0048   0.0054   0.0095  -0.0010   0.0020  -0.0032   0.00    3.8      1
2218 309715   44.399813095    8.937673874   105.7531   1   8   0.0051   0.0054   0.0096  -0.0012   0.0016  -0.0028   0.00    3.8      1
2218 309716   44.399813097    8.937673869   105.7474   1   8   0.0051   0.0053   0.0095  -0.0006   0.0016  -0.0028   0.00    3.8      1
2218 309717   44.399813080    8.937673854   105.7528   1   8   0.0049   0.0053   0.0095  -0.0009   0.0018  -0.0030   0.00    3.8      1
2218 309718   44.399813085    8.937673838   105.7529   1   8   0.0051   0.0053   0.0096  -0.0013   0.0018  -0.0029   0.00    3.8      1
2218 309719   44.399813118    8.937673848   105.7491   1   8   0.0050   0.0054   0.0095   0.0009   0.0015  -0.0029   0.00    3.8      1
2218 309720   44.399813086    8.937673837   105.7480   1   8   0.0051   0.0053   0.0096  -0.0007   0.0018  -0.0028   0.00    3.8      1
2218 309721   44.399813100    8.937673856   105.7514   1   8   0.0054   0.0053   0.0096  -0.0010   0.0018  -0.0025   0.00    3.8      1
2218 309722   44.399813099    8.937673858   105.7493   1   8   0.0048   0.0055   0.0096   0.0005   0.0019  -0.0031   0.00    3.8      1
2218 309723   44.399813069    8.937673841   105.7501   1   8   0.0050   0.0054   0.0096  -0.0013   0.0017  -0.0030   0.00    3.8      1
2218 309724   44.399813095    8.937673859   105.7506   1   8   0.0048   0.0055   0.0096   0.0004   0.0020  -0.0032   0.00    3.8      1
2218 309725   44.399813112    8.937673836   105.7461   1   8   0.0049   0.0055   0.0096   0.0007   0.0018  -0.0031   0.00    3.8      1
2218 309726   44.399813103    8.937673839   105.7504   1   8   0.0049   0.0055   0.0096   0.0004   0.0019  -0.0031   0.00    3.8      1
2218 309727   44.399813098    8.937673827   105.7490   1   8   0.0049   0.0053   0.0096  -0.0005   0.0017  -0.0030   0.00    3.8      1
2218 309728   44.399813081    8.937673859   105.7493   1   8   0.0052   0.0053   0.0096  -0.0009   0.0015  -0.0027   0.00    3.8      1
2218 309729   44.399813096    8.937673857   105.7498   1   8   0.0050   0.0055   0.0096  -0.0003   0.0020  -0.0032   0.00    3.8      1
2218 309730   44.399813085    8.937673893   105.7528   1   8   0.0049   0.0055   0.0096  -0.0005   0.0019  -0.0030   0.00    3.8      1
2218 309731   44.399813086    8.937673876   105.7541   1   8   0.0047   0.0055   0.0095  -0.0004   0.0019  -0.0031   0.00    3.8      1
2218 309732   44.399813106    8.937673857   105.7528   1   8   0.0046   0.0054   0.0095   0.0011   0.0016  -0.0033   0.00    3.8      1
2218 309733   44.399813121    8.937673818   105.7517   1   8   0.0046   0.0053   0.0096   0.0013   0.0021  -0.0032   0.00    3.8      1
2218 309734   44.399813085    8.937673873   105.7536   1   8   0.0047   0.0054   0.0095   0.0005   0.0020  -0.0033   0.00    3.8      1
2218 309735   44.399813083    8.937673845   105.7554   1   8   0.0050   0.0054   0.0096  -0.0010   0.0014  -0.0029   0.00    3.8      1
2218 309736   44.399813092    8.937673865   105.7549   1   8   0.0049   0.0055   0.0095  -0.0002   0.0019  -0.0031   0.00    3.8      1
2218 309737   44.399813091    8.937673855   105.7522   1   8   0.0049   0.0055   0.0095  -0.0009   0.0019  -0.0031   0.00    3.8      1
2218 309738   44.399813086    8.937673865   105.7532   1   8   0.0049   0.0055   0.0096   0.0004   0.0023  -0.0030   0.00    3.8      1
2218 309739   44.399813096    8.937673848   105.7547   1   8   0.0046   0.0055   0.0096   0.0010   0.0020  -0.0032   0.00    3.8      1
2218 309740   44.399813095    8.937673877   105.7558   1   8   0.0048   0.0055   0.0095   0.0009   0.0021  -0.0029   0.00    3.8      1
2218 309741   44.399813102    8.937673874   105.7532   1   8   0.0044   0.0054   0.0096   0.0005   0.0021  -0.0034   0.00    3.8      1
2218 309742   44.399813080    8.937673848   105.7573   1   8   0.0047   0.0057   0.0095   0.0009   0.0020  -0.0033   0.00    3.9      1
2218 309743   44.399813094    8.937673836   105.7575   1   8   0.0048   0.0053   0.0095  -0.0008   0.0016  -0.0031   0.00    3.9      1
2218 309744   44.399813102    8.937673835   105.7576   1   8   0.0051   0.0053   0.0096  -0.0012   0.0015  -0.0028   0.00    3.9      1
2218 309745   44.399813081    8.937673840   105.7542   1   8   0.0050   0.0053   0.0096   0.0007   0.0016  -0.0031   0.00    3.9      1
2218 309746   44.399813091    8.937673844   105.7526   1   8   0.0050   0.0053   0.0096   0.0006   0.0018  -0.0029   0.00    3.9      1
2218 309747   44.399813068    8.937673874   105.7528   1   8   0.0051   0.0055   0.0096  -0.0014   0.0022  -0.0028   0.00    3.9      1
2218 309748   44.399813098    8.937673849   105.7564   1   8   0.0050   0.0054   0.0095   0.0006   0.0015  -0.0030   0.00    3.9      1
2218 309749   44.399813109    8.937673836   105.7545   1   8   0.0049   0.0054   0.0096  -0.0008   0.0017  -0.0029   0.00    3.9      1
2218 309750   44.399813108    8.937673837   105.7521   1   8   0.0050   0.0054   0.0095  -0.0005   0.0016  -0.0029   0.00    3.9      1
2218 309751   44.399813089    8.937673837   105.7527   1   8   0.0051   0.0054   0.0096  -0.0008   0.0018  -0.0029   0.00    3.9      1
2218 309752   44.399813100    8.937673827   105.7514   1   8   0.0051   0.0053   0.0096   0.0006   0.0018  -0.0028   0.00    3.9      1
2218 309753   44.399813097    8.937673853   105.7535   1   8   0.0051   0.0055   0.0095  -0.0006   0.0017  -0.0028   0.00    3.9      1
2218 309754   44.399813099    8.937673834   105.7488   1   8   0.0049   0.0055   0.0095   0.0007   0.0021  -0.0030   0.00    3.9      1
2218 309755   44.399813085    8.937673824   105.7471   1   8   0.0049   0.0054   0.0096  -0.0008   0.0021  -0.0029   0.00    3.9      1
2218 309756   44.399813079    8.937673829   105.7522   1   8   0.0052   0.0053   0.0096  -0.0005   0.0014  -0.0027   0.00    3.9      1
2218 309757   44.399813098    8.937673832   105.7488   1   8   0.0049   0.0054   0.0095  -0.0013   0.0017  -0.0030   0.00    3.9      1
2218 309758   44.399813086    8.937673858   105.7513   1   8   0.0051   0.0054   0.0096  -0.0009   0.0019  -0.0030   0.00    3.9      1
2218 309759   44.399813085    8.937673839   105.7548   1   8   0.0051   0.0053   0.0096  -0.0009   0.0018  -0.0028   0.00    3.9      1
2218 309760   44.399813067    8.937673817   105.7504   1   8   0.0049   0.0055   0.0096  -0.0007   0.0020  -0.0030   0.00    3.9      1
2218 309761   44.399813076    8.937673817   105.7546   1   8   0.0051   0.0052   0.0096  -0.0007   0.0017  -0.0027   0.00    3.9      1
2218 309762   44.399813070    8.937673824   105.7528   1   8   0.0049   0.0054   0.0096   0.0009   0.0018  -0.0031   0.00    3.9      1
2218 309763   44.399813071    8.937673822   105.7533   1   8   0.0050   0.0052   0.0096  -0.0009   0.0018  -0.0029   0.00    3.9      1
2218 309764   44.399813087    8.937673833   105.7493   1   8   0.0051   0.0055   0.0096  -0.0007   0.0020  -0.0028   0.00    3.9      1
2218 309765   44.399813082    8.937673785   105.7519   1   8   0.0049   0.0054   0.0096  -0.0015   0.0020  -0.0030   0.00    3.9      1
2218 309766   44.399813072    8.937673804   105.7516   1   8   0.0052   0.0056   0.0096  -0.0008   0.0018  -0.0028   0.00    3.9      1
2218 309767   44.399813084    8.937673813   105.7484   1   8   0.0049   0.0055   0.0095   0.0005   0.0016  -0.0030   0.00    3.9      1
2218 309768   44.399813103    8.937673844   105.7527   1   8   0.0051   0.0052   0.0097  -0.0012   0.0016  -0.0030   0.00    3.9      1
2218 309769   44.399813070    8.937673820   105.7532   1   8   0.0051   0.0052   0.0096  -0.0010   0.0014  -0.0029   0.00    3.9      1
2218 309770   44.399813078    8.937673814   105.7500   1   8   0.0047   0.0056   0.0096   0.0006   0.0020  -0.0033   0.00    3.9      1
2218 309771   44.399813071    8.937673808   105.7494   1   8   0.0051   0.0056   0.0097  -0.0012   0.0019  -0.0030   0.00    3.9      1
2218 309772   44.399813096    8.937673795   105.7467   1   8   0.0050   0.0054   0.0096   0.0010   0.0018  -0.0029   0.00    3.9      1
2218 309773   44.399813079    8.937673795   105.7514   1   8   0.0050   0.0055   0.0096   0.0008   0.0016  -0.0028   0.00    3.9      1
2218 309774   44.399813069    8.937673788   105.7522   1   8   0.0048   0.0054   0.0095   0.0010   0.0018  -0.0030   0.00    3.9      1
2218 309775   44.399813066    8.937673795   105.7522   1   8   0.0050   0.0053   0.0096   0.0008   0.0016  -0.0027   0.00    3.9      1
2218 309776   44.399813077    8.937673800   105.7538   1   8   0.0048   0.0055   0.0095   0.0008   0.0018  -0.0030   0.00    3.9      1
2218 309777   44.399813072    8.937673794   105.7512   1   8   0.0047   0.0054   0.0095   0.0009   0.0019  -0.0031   0.00    3.9      1
2218 309778   44.399813072    8.937673779   105.7522   1   8   0.0050   0.0053   0.0096   0.0009   0.0015  -0.0030   0.00    3.9      1
2218 309779   44.399813074    8.937673780   105.7523   1   8   0.0052   0.0053   0.0096  -0.0011   0.0020  -0.0029   0.00    3.9      1
2218 309780   44.399813084    8.937673777   105.7554   1   8   0.0050   0.0054   0.0096  -0.0016   0.0021  -0.0030   0.00    3.9      1
2218 309781   44.399813082    8.937673777   105.7552   1   8   0.0048   0.0054   0.0096  -0.0005   0.0017  -0.0030   0.00    3.9      1
2218 309782   44.399813073    8.937673775   105.7513   1   8   0.0052   0.0053   0.0096  -0.0008   0.0018  -0.0028   0.00    3.9      1
2218 309783   44.399813071    8.937673776   105.7528   1   8   0.0050   0.0052   0.0096   0.0002   0.0017  -0.0030   0.00    3.9      1
2218 309784   44.399813076    8.937673783   105.7524   1   8   0.0048   0.0054   0.0096  -0.0007   0.0018  -0.0030   0.00    3.9      1
2218 309785   44.399813075    8.937673768   105.7532   1   8   0.0049   0.0053   0.0095   0.0014   0.0017  -0.0030   0.00    3.9      1
2218 309786   44.399813081    8.937673797   105.7541   1   8   0.0049   0.0056   0.0097  -0.0008   0.0020  -0.0030   0.00    3.9      1
2218 309787   44.399813069    8.937673808   105.7550   1   8   0.0050   0.0056   0.0095  -0.0010   0.0019  -0.0029   0.00    3.9      1
2218 309788   44.399813080    8.937673821   105.7552   1   8   0.0051   0.0054   0.0096  -0.0002   0.0018  -0.0030   0.00    3.9      1
2218 309789   44.399813092    8.937673804   105.7523   1   8   0.0051   0.0055   0.0096   0.0009   0.0018  -0.0030   0.00    3.9      1
2218 309790   44.399813084    8.937673810   105.7547   1   8   0.0049   0.0055   0.0096  -0.0009   0.0019  -0.0030   0.00    4.0      1
2218 309791   44.399813085    8.937673804   105.7548   1   8   0.0052   0.0054   0.0096  -0.0013   0.0020  -0.0028   0.00    4.0      1
2218 309792   44.399813086    8.937673817   105.7540   1   8   0.0054   0.0055   0.0096  -0.0013   0.0019  -0.0027   0.00    4.0      1
2218 309793   44.399813081    8.937673839   105.7557   1   8   0.0048   0.0054   0.0096  -0.0004   0.0017  -0.0032   0.00    4.0      1
2218 309794   44.399813062    8.937673806   105.7565   1   8   0.0051   0.0054   0.0096  -0.0011   0.0018  -0.0029   0.00    4.0      1
2218 309795   44.399813079    8.937673807   105.7536   1   8   0.0051   0.0054   0.0096  -0.0010   0.0016  -0.0027   0.00    4.0      1
2218 309796   44.399813057    8.937673805   105.7537   1   8   0.0051   0.0053   0.0096   0.0004   0.0016  -0.0029   0.00    4.0      1
2218 309797   44.399813074    8.937673781   105.7563   1   8   0.0051   0.0054   0.0096   0.0005   0.0017  -0.0030   0.00    4.0      1
2218 309798   44.399813090    8.937673791   105.7561   1   8   0.0050   0.0055   0.0096  -0.0010   0.0019  -0.0030   0.00    4.0      1
2218 309799   44.399813077    8.937673773   105.7591   1   8   0.0048   0.0057   0.0096   0.0010   0.0018  -0.0031   0.00    4.0      1
2218 309800   44.399813079    8.937673787   105.7527   1   8   0.0052   0.0053   0.0096  -0.0005   0.0018  -0.0029   0.00    4.0      1
2218 309801   44.399813089    8.937673779   105.7556   1   8   0.0054   0.0056   0.0098  -0.0009   0.0019  -0.0028  -1.00    4.0      1
2218 309802   44.399813078    8.937673789   105.7580   1   8   0.0050   0.0054   0.0096  -0.0011   0.0017  -0.0031   0.00    4.0      1
2218 309803   44.399813077    8.937673781   105.7515   1   8   0.0047   0.0052   0.0095   0.0006   0.0017  -0.0030   0.00    4.0      1
2218 309804   44.399813078    8.937673792   105.7591   1   8   0.0051   0.0054   0.0096  -0.0011   0.0018  -0.0029   0.00    4.0      1
2218 309805   44.399813053    8.937673771   105.7549   1   8   0.0049   0.0053   0.0097   0.0010   0.0012  -0.0031  -1.00    4.0      1
2218 309806   44.399813066    8.937673776   105.7535   1   8   0.0048   0.0056   0.0095   0.0011   0.0020  -0.0030   0.00    4.0      1
2218 309807   44.399813062    8.937673746   105.7520   1   8   0.0049   0.0055   0.0096   0.0003   0.0019  -0.0030   0.00    4.0      1
2218 309808   44.399813076    8.937673757   105.7542   1   8   0.0048   0.0053   0.0096  -0.0007   0.0020  -0.0031   0.00    4.0      1
2218 309809   44.399813077    8.937673737   105.7570   1   8   0.0052   0.0055   0.0098   0.0007   0.0015  -0.0029  -1.00    4.0      1
2218 309810   44.399813064    8.937673735   105.7529   1   8   0.0052   0.0055   0.0096  -0.0010   0.0018  -0.0029   0.00    4.0      1
2218 309811   44.399813063    8.937673811   105.7575   1   8   0.0050   0.0054   0.0096   0.0010   0.0017  -0.0029   0.00    4.0      1
2218 309812   44.399813068    8.937673770   105.7537   1   8   0.0049   0.0055   0.0095  -0.0007   0.0018  -0.0031   0.00    4.0      1
2218 309813   44.399813075    8.937673771   105.7567   1   8   0.0050   0.0056   0.0098   0.0006   0.0020  -0.0030  -1.00    4.0      1
2218 309814   44.399813082    8.937673766   105.7546   1   8   0.0049   0.0053   0.0095  -0.0003   0.0018  -0.0031   0.00    4.0      1
2218 309815   44.399813081    8.937673742   105.7573   1   8   0.0050   0.0055   0.0096  -0.0003   0.0019  -0.0031   0.00    4.0      1
