%  GPST       latitude(deg) longitude(deg)  height(m)   Q  ns   sdn(m)   sde(m)   sdu(m)  sdne(m)  sdeu(m)  sdun(m) age(s)  ratio gterCor
2218 309459   44.399804440    8.937676132   108.1544   6   7   5.5937   5.2411  13.1499   2.6562   1.3818   3.3528   0.00    0.0      1
2218 309460   44.399804204    8.937676294   108.1990   6   7   3.9823   3.7315   9.5478   1.8927   0.9600   2.4063   0.00    0.0      1
2218 309461   44.399805772    8.937677563   108.4412   6   7   3.2619   3.0560   7.8693   1.5513   0.7824   1.9772   0.00    0.0      1
2218 309462   44.399806619    8.937675523   108.4800   6   7   2.8314   2.6521   6.8496   1.3475   0.6797   1.7197   0.00    0.0      1
2218 309463   44.399808683    8.937674503   108.6329   6   7   2.5374   2.3762   6.1464   1.2084   0.6110   1.5434   0.00    0.0      1
2218 309464   44.399810170    8.937673874   108.9407   6   7   2.3205   2.1725   5.6240   1.1058   0.5614   1.4133   0.00    0.0      1
2218 309465   44.399810650    8.937673581   109.2311   6   7   2.1519   2.0141   5.2163   1.0261   0.5233   1.3120   0.00    0.0      1
2218 309466   44.399811725    8.937673211   109.5878   6   7   2.0161   1.8866   4.8866   0.9620   0.4930   1.2305   0.00    0.0      1
2218 309467   44.399812553    8.937673592   109.7692   6   7   1.9038   1.7810   4.6128   0.9090   0.4683   1.1630   0.00    0.0      1
2218 309468   44.399813555    8.937674102   110.0012   6   7   1.8088   1.6917   4.3809   0.8642   0.4475   1.1059   0.00    0.0      1
2218 309469   44.399813681    8.937673667   110.2212   6   7   1.7272   1.6150   4.1811   0.8257   0.4299   1.0569   0.00    0.0      1
2218 309470   44.399814350    8.937674041   110.4037   6   7   1.6561   1.5481   4.0067   0.7922   0.4146   1.0142   0.00    0.0      1
2218 309471   44.399814556    8.937674778   110.5175   6   7   1.5934   1.4891   3.8526   0.7627   0.4013   0.9766   0.00    0.0      1
2218 309472   44.399814690    8.937675278   110.6498   6   7   1.5376   1.4367   3.7154   0.7365   0.3895   0.9431   0.00    0.0      1
2218 309473   44.399815302    8.937675707   110.8636   6   7   1.4876   1.3896   3.5920   0.7130   0.3790   0.9131   0.00    0.0      1
2218 309474   44.399815133    8.937676034   110.9397   6   7   1.4424   1.3470   3.4803   0.6918   0.3696   0.8860   0.00    0.0      1
2218 309475   44.399814903    8.937676274   111.0253   6   7   1.4013   1.3083   3.3787   0.6725   0.3612   0.8613   0.00    0.0      1
2218 309476   44.399815240    8.937676911   111.1929   6   7   1.3637   1.2729   3.2856   0.6548   0.3535   0.8388   0.00    0.0      1
2218 309477   44.399815298    8.937677796   111.2927   6   7   1.3291   1.2404   3.1999   0.6386   0.3464   0.8181   0.00    0.0      1
2218 309478   44.399815298    8.937678277   111.3312   6   7   1.2973   1.2103   3.1208   0.6237   0.3400   0.7990   0.00    0.0      1
2218 309479   44.399815283    8.937678652   111.3998   6   7   1.2677   1.1825   3.0473   0.6099   0.3341   0.7813   0.00    0.0      1
2218 309480   44.399815216    8.937679247   111.3479   6   7   1.2403   1.1566   2.9790   0.5970   0.3286   0.7649   0.00    0.0      1
2218 309481   44.399815346    8.937679662   111.3503   6   7   1.2146   1.1325   2.9151   0.5850   0.3235   0.7495   0.00    0.0      1
2218 309482   44.399815140    8.937680264   111.3060   6   7   1.1907   1.1099   2.8553   0.5738   0.3188   0.7352   0.00    0.0      1
2218 309483   44.399814940    8.937680603   111.2043   6   7   1.1682   1.0887   2.7992   0.5633   0.3144   0.7217   0.00    0.0      1
2218 309484   44.399814549    8.937680844   111.1428   6   7   1.1470   1.0687   2.7463   0.5535   0.3103   0.7091   0.00    0.0      1
2218 309485   44.399814350    8.937681351   111.0567   6   7   1.1271   1.0499   2.6964   0.5442   0.3065   0.6972   0.00    0.0      1
2218 309486   44.399814401    8.937681689   110.9704   6   7   1.1082   1.0321   2.6491   0.5354   0.3028   0.6859   0.00    0.0      1
2218 309487   44.399813904    8.937681949   110.8031   6   7   1.0904   1.0153   2.6044   0.5271   0.2994   0.6753   0.00    0.0      1
2218 309488   44.399813755    8.937682146   110.6573   6   7   1.0734   0.9993   2.5619   0.5192   0.2962   0.6652   0.00    0.0      1
2218 309489   44.399813555    8.937682628   110.4997   6   7   1.0574   0.9841   2.5215   0.5117   0.2932   0.6556   0.00    0.0      1
2218 309490   44.399813380    8.937682989   110.3520   6   7   1.0421   0.9697   2.4831   0.5046   0.2903   0.6465   0.00    0.0      1
2218 309491   44.399813208    8.937683351   110.1887   6   7   1.0275   0.9559   2.4464   0.4978   0.2876   0.6378   0.00    0.0      1
2218 309492   44.399813156    8.937683359   110.1444   6   6   1.0570   0.9473   2.4629   0.4627   0.1885   0.7341   0.00    0.0      1
2218 309493   44.399812729    8.937683327   109.9278   6   7   1.0466   0.9347   2.4317   0.4559   0.1862   0.7322   0.00    0.0      1
2218 309494   44.399812354    8.937683448   109.6986   6   7   1.0131   0.9202   2.3807   0.4655   0.2334   0.6807   0.00    0.0      1
2218 309495   44.399812054    8.937683513   109.4825   6   7   0.9921   0.9082   2.3389   0.4641   0.2456   0.6507   0.00    0.0      1
2218 309496   44.399811829    8.937683542   109.2684   6   7   0.9764   0.8968   2.3044   0.4608   0.2505   0.6335   0.00    0.0      1
2218 309497   44.399811593    8.937683873   109.0778   6   7   0.9630   0.8860   2.2736   0.4570   0.2527   0.6215   0.00    0.0      1
2218 309498   44.399811332    8.937683913   108.9284   6   7   0.9507   0.8757   2.2447   0.4530   0.2537   0.6115   0.00    0.0      1
2218 309499   44.399810846    8.937684035   108.7917   6   7   0.9392   0.8657   2.2170   0.4489   0.2540   0.6025   0.00    0.0      1
2218 309500   44.399810800    8.937684224   108.6690   6   7   0.9283   0.8562   2.1905   0.4448   0.2538   0.5944   0.00    0.0      1
2218 309501   44.399810607    8.937684305   108.5576   6   7   0.9180   0.8471   2.1651   0.4408   0.2535   0.5869   0.00    0.0      1
2218 309502   44.399810446    8.937684421   108.4674   6   7   0.9082   0.8382   2.1408   0.4368   0.2529   0.5799   0.00    0.0      1
2218 309503   44.399810209    8.937684563   108.3701   6   7   0.8988   0.8297   2.1173   0.4330   0.2522   0.5734   0.00    0.0      1
2218 309504   44.399810122    8.937684711   108.2972   6   7   0.8897   0.8215   2.0947   0.4292   0.2515   0.5672   0.00    0.0      1
2218 309505   44.399809860    8.937684800   108.2082   6   7   0.8810   0.8135   2.0729   0.4255   0.2507   0.5614   0.00    0.0      1
2218 309506   44.399809889    8.937684797   108.1581   6   7   0.8726   0.8058   2.0518   0.4220   0.2499   0.5558   0.00    0.0      1
2218 309507   44.399809546    8.937685053   108.0883   6   7   0.8645   0.7984   2.0313   0.4185   0.2491   0.5505   0.00    0.0      1
2218 309508   44.399809519    8.937685189   108.0237   6   7   0.8567   0.7912   2.0116   0.4152   0.2483   0.5454   0.00    0.0      1
2218 309509   44.399809387    8.937685115   108.0013   6   7   0.8492   0.7842   1.9924   0.4119   0.2474   0.5405   0.00    0.0      1
2218 309510   44.399809219    8.937685122   107.9624   6   7   0.8419   0.7774   1.9738   0.4087   0.2466   0.5358   0.00    0.0      1
2218 309511   44.399809127    8.937685225   107.9581   6   7   0.8348   0.7708   1.9558   0.4056   0.2458   0.5313   0.00    0.0      1
2218 309512   44.399809052    8.937685223   107.9640   6   7   0.8279   0.7644   1.9383   0.4026   0.2450   0.5269   0.00    0.0      1
2218 309513   44.399809042    8.937685133   107.9798   6   7   0.8212   0.7582   1.9213   0.3997   0.2442   0.5227   0.00    0.0      1
2218 309514   44.399809099    8.937685141   107.9988   6   7   0.8148   0.7522   1.9047   0.3969   0.2434   0.5186   0.00    0.0      1
2218 309515   44.399809141    8.937685004   108.0408   6   7   0.8085   0.7464   1.8886   0.3941   0.2426   0.5146   0.00    0.0      1
2218 309516   44.399809040    8.937685236   108.0626   6   7   0.8024   0.7406   1.8730   0.3914   0.2419   0.5108   0.00    0.0      1
2218 309517   44.399809169    8.937684901   108.1097   6   7   0.7964   0.7351   1.8577   0.3888   0.2411   0.5071   0.00    0.0      1
2218 309518   44.399809103    8.937685023   108.1496   6   7   0.7906   0.7297   1.8429   0.3863   0.2404   0.5034   0.00    0.0      1
2218 309519   44.399809217    8.937684773   108.2141   6   7   0.7850   0.7244   1.8284   0.3838   0.2397   0.4999   0.00    0.0      1
2218 309520   44.399809301    8.937684549   108.2516   6   7   0.7795   0.7193   1.8143   0.3814   0.2390   0.4965   0.00    0.0      1
2218 309521   44.399809275    8.937684382   108.2740   6   7   0.7742   0.7143   1.8005   0.3790   0.2383   0.4932   0.00    0.0      1
2218 309522   44.399809233    8.937684193   108.3064   6   7   0.7689   0.7094   1.7871   0.3767   0.2376   0.4900   0.00    0.0      1
2218 309523   44.399809333    8.937683891   108.3253   6   7   0.7639   0.7046   1.7739   0.3744   0.2370   0.4868   0.00    0.0      1
2218 309524   44.399809358    8.937683677   108.3788   6   7   0.7589   0.7000   1.7611   0.3723   0.2363   0.4837   0.00    0.0      1
2218 309525   44.399809350    8.937683472   108.4188   6   7   0.7541   0.6955   1.7486   0.3701   0.2357   0.4807   0.00    0.0      1
2218 309526   44.399809568    8.937683418   108.4816   6   7   0.7493   0.6910   1.7364   0.3680   0.2351   0.4778   0.00    0.0      1
2218 309527   44.399809585    8.937683256   108.5183   6   7   0.7447   0.6867   1.7244   0.3660   0.2345   0.4750   0.00    0.0      1
2218 309528   44.399809740    8.937683063   108.5526   6   7   0.7402   0.6825   1.7127   0.3640   0.2339   0.4722   0.00    0.0      1
2218 309529   44.399809865    8.937682936   108.5754   6   7   0.7358   0.6783   1.7013   0.3620   0.2334   0.4695   0.00    0.0      1
2218 309530   44.399809751    8.937682709   108.5741   6   7   0.7315   0.6743   1.6900   0.3601   0.2328   0.4668   0.00    0.0      1
2218 309531   44.399809813    8.937682475   108.5943   6   7   0.7272   0.6703   1.6791   0.3582   0.2323   0.4642   0.00    0.0      1
2218 309532   44.399809778    8.937682396   108.6100   6   7   0.7231   0.6664   1.6683   0.3564   0.2317   0.4617   0.00    0.0      1
2218 309533   44.399809889    8.937682190   108.6255   6   7   0.7191   0.6626   1.6578   0.3546   0.2312   0.4592   0.00    0.0      1
2218 309534   44.399809880    8.937682206   108.6201   6   7   0.7151   0.6589   1.6475   0.3529   0.2307   0.4568   0.00    0.0      1
2218 309535   44.399809818    8.937682277   108.6164   6   7   0.7112   0.6553   1.6374   0.3512   0.2302   0.4544   0.00    0.0      1
2218 309536   44.399809949    8.937682441   108.5974   6   7   0.7074   0.6517   1.6275   0.3495   0.2297   0.4521   0.00    0.0      1
2218 309537   44.399809819    8.937682459   108.5890   6   7   0.7037   0.6482   1.6178   0.3479   0.2292   0.4498   0.00    0.0      1
2218 309538   44.399809785    8.937682531   108.5562   6   7   0.7001   0.6448   1.6083   0.3462   0.2288   0.4476   0.00    0.0      1
2218 309539   44.399809982    8.937682664   108.5442   6   7   0.6965   0.6414   1.5990   0.3447   0.2283   0.4454   0.00    0.0      1
2218 309540   44.399809790    8.937682765   108.4953   6   7   0.6930   0.6381   1.5898   0.3431   0.2279   0.4433   0.00    0.0      1
2218 309541   44.399809752    8.937682904   108.4533   6   7   0.6895   0.6349   1.5808   0.3416   0.2274   0.4412   0.00    0.0      1
2218 309542   44.399809858    8.937683121   108.4203   6   7   0.6862   0.6317   1.5720   0.3401   0.2270   0.4391   0.00    0.0      1
2218 309543   44.399809893    8.937683228   108.3843   6   7   0.6829   0.6286   1.5633   0.3387   0.2266   0.4371   0.00    0.0      1
2218 309544   44.399809803    8.937683302   108.3389   6   7   0.6796   0.6256   1.5548   0.3372   0.2262   0.4351   0.00    0.0      1
2218 309545   44.399809842    8.937683509   108.3084   6   7   0.6764   0.6226   1.5464   0.3358   0.2258   0.4331   0.00    0.0      1
2218 309546   44.399809882    8.937683685   108.2673   6   7   0.6733   0.6196   1.5382   0.3344   0.2254   0.4312   0.00    0.0      1
2218 309547   44.399809739    8.937683786   108.2076   6   7   0.6702   0.6168   1.5301   0.3331   0.2250   0.4294   0.00    0.0      1
2218 309548   44.399809904    8.937683853   108.1691   6   7   0.6672   0.6139   1.5222   0.3318   0.2246   0.4275   0.00    0.0      1
2218 309549   44.399810017    8.937684026   108.1488   6   7   0.6642   0.6111   1.5144   0.3305   0.2242   0.4257   0.00    0.0      1
2218 309550   44.399810157    8.937684031   108.1177   6   7   0.6613   0.6084   1.5067   0.3292   0.2239   0.4239   0.00    0.0      1
2218 309551   44.399810040    8.937684069   108.0568   6   7   0.6585   0.6057   1.4992   0.3279   0.2235   0.4222   0.00    0.0      1
2218 309552   44.399810089    8.937684119   108.0140   6   7   0.6556   0.6031   1.4917   0.3267   0.2232   0.4205   0.00    0.0      1
2218 309553   44.399810083    8.937684109   107.9672   6   7   0.6529   0.6005   1.4844   0.3255   0.2228   0.4188   0.00    0.0      1
2218 309554   44.399810105    8.937684161   107.9221   6   7   0.6502   0.5979   1.4772   0.3243   0.2225   0.4171   0.00    0.0      1
2218 309555   44.399810324    8.937684176   107.8885   6   7   0.6475   0.5954   1.4702   0.3231   0.2222   0.4155   0.00    0.0      1
2218 309556   44.399810325    8.937684108   107.8603   6   7   0.6448   0.5929   1.4632   0.3220   0.2219   0.4139   0.00    0.0      1
2218 309557   44.399810327    8.937684206   107.8109   6   7   0.6422   0.5905   1.4563   0.3208   0.2215   0.4123   0.00    0.0      1
2218 309558   44.399810292    8.937684138   107.7732   6   7   0.6397   0.5881   1.4496   0.3197   0.2212   0.4108   0.00    0.0      1
2218 309559   44.399810126    8.937684035   107.7285   6   7   0.6372   0.5857   1.4430   0.3186   0.2209   0.4092   0.00    0.0      1
2218 309560   44.399810483    8.937684004   107.7368   6   7   0.6347   0.5834   1.4364   0.3175   0.2206   0.4077   0.00    0.0      1
2218 309561   44.399810395    8.937684021   107.7049   6   7   0.6323   0.5811   1.4300   0.3165   0.2203   0.4062   0.00    0.0      1
2218 309562   44.399810360    8.937683893   107.6869   6   7   0.6299   0.5789   1.4236   0.3154   0.2200   0.4048   0.00    0.0      1
2218 309563   44.399810498    8.937683820   107.6725   6   7   0.6275   0.5767   1.4173   0.3144   0.2198   0.4033   0.00    0.0      1
2218 309564   44.399810416    8.937683602   107.6580   6   7   0.6252   0.5745   1.4112   0.3134   0.2195   0.4019   0.00    0.0      1
2218 309565   44.399810573    8.937683640   107.6591   6   7   0.6229   0.5723   1.4051   0.3124   0.2192   0.4005   0.00    0.0      1
2218 309566   44.399810664    8.937683620   107.6330   6   7   0.6207   0.5702   1.3991   0.3114   0.2189   0.3992   0.00    0.0      1
2218 309567   44.399810608    8.937683611   107.6323   6   7   0.6184   0.5681   1.3932   0.3104   0.2187   0.3978   0.00    0.0      1
2218 309568   44.399810730    8.937683505   107.6559   6   7   0.6163   0.5661   1.3874   0.3095   0.2184   0.3965   0.00    0.0      1
2218 309569   44.399810727    8.937683641   107.6671   6   7   0.6141   0.5641   1.3816   0.3086   0.2182   0.3952   0.00    0.0      1
2218 309570   44.399810611    8.937683563   107.6764   6   7   0.6120   0.5621   1.3760   0.3076   0.2179   0.3939   0.00    0.0      1
2218 309571   44.399810834    8.937683581   107.6903   6   7   0.6099   0.5601   1.3704   0.3067   0.2177   0.3926   0.00    0.0      1
2218 309572   44.399810724    8.937683652   107.6769   6   7   0.6078   0.5582   1.3649   0.3058   0.2174   0.3913   0.00    0.0      1
2218 309573   44.399810772    8.937683582   107.6808   6   7   0.6058   0.5563   1.3594   0.3049   0.2172   0.3901   0.00    0.0      1
2218 309574   44.399810785    8.937683541   107.6796   6   7   0.6038   0.5544   1.3540   0.3041   0.2170   0.3888   0.00    0.0      1
2218 309575   44.399810798    8.937683481   107.6937   6   7   0.6018   0.5525   1.3487   0.3032   0.2167   0.3876   0.00    0.0      1
2218 309576   44.399810764    8.937683479   107.6860   6   7   0.5998   0.5507   1.3435   0.3024   0.2165   0.3864   0.00    0.0      1
2218 309577   44.399810810    8.937683414   107.6900   6   7   0.5979   0.5489   1.3384   0.3015   0.2163   0.3853   0.00    0.0      1
2218 309578   44.399810863    8.937683350   107.7018   6   7   0.5960   0.5471   1.3333   0.3007   0.2161   0.3841   0.00    0.0      1
2218 309579   44.399810891    8.937683275   107.7256   6   7   0.5941   0.5453   1.3282   0.2999   0.2159   0.3829   0.00    0.0      1
2218 309580   44.399811110    8.937683153   107.7512   6   7   0.5922   0.5436   1.3233   0.2991   0.2157   0.3818   0.00    0.0      1
2218 309581   44.399811081    8.937683209   107.7496   6   7   0.5904   0.5419   1.3184   0.2983   0.2154   0.3807   0.00    0.0      1
2218 309582   44.399811113    8.937683186   107.7487   6   7   0.5886   0.5402   1.3135   0.2975   0.2152   0.3796   0.00    0.0      1
2218 309583   44.399811137    8.937683107   107.7392   6   7   0.5868   0.5385   1.3087   0.2968   0.2150   0.3785   0.00    0.0      1
2218 309584   44.399811300    8.937682995   107.7587   6   7   0.5851   0.5369   1.3040   0.2960   0.2148   0.3774   0.00    0.0      1
2218 309585   44.399811347    8.937682942   107.7497   6   7   0.5833   0.5353   1.2993   0.2953   0.2147   0.3764   0.00    0.0      1
2218 309586   44.399811336    8.937682761   107.7603   6   7   0.5816   0.5337   1.2947   0.2945   0.2145   0.3753   0.00    0.0      1
2218 309587   44.399811250    8.937682756   107.7376   6   7   0.5799   0.5321   1.2902   0.2938   0.2143   0.3743   0.00    0.0      1
2218 309588   44.399811405    8.937682633   107.7342   6   7   0.5782   0.5305   1.2857   0.2931   0.2141   0.3732   0.00    0.0      1
2218 309589   44.399811505    8.937682584   107.7356   6   7   0.5766   0.5290   1.2812   0.2924   0.2139   0.3722   0.00    0.0      1
2218 309590   44.399811531    8.937682409   107.7182   6   7   0.5750   0.5275   1.2768   0.2917   0.2137   0.3712   0.00    0.0      1
2218 309591   44.399811552    8.937682319   107.7088   6   7   0.5733   0.5259   1.2725   0.2910   0.2136   0.3702   0.00    0.0      1
2218 309592   44.399811726    8.937682333   107.7005   6   7   0.5717   0.5245   1.2682   0.2903   0.2134   0.3692   0.00    0.0      1
2218 309593   44.399811736    8.937682385   107.6711   6   7   0.5702   0.5230   1.2639   0.2896   0.2132   0.3683   0.00    0.0      1
2218 309594   44.399811689    8.937682350   107.6504   6   7   0.5686   0.5215   1.2597   0.2890   0.2131   0.3673   0.00    0.0      1
2218 309595   44.399811724    8.937682354   107.6313   6   7   0.5671   0.5201   1.2555   0.2883   0.2129   0.3664   0.00    0.0      1
2218 309596   44.399811760    8.937682538   107.6121   6   7   0.5656   0.5187   1.2514   0.2877   0.2127   0.3654   0.00    0.0      1
2218 309597   44.399811705    8.937682392   107.6053   6   7   0.5641   0.5173   1.2474   0.2870   0.2126   0.3645   0.00    0.0      1
2218 309598   44.399811788    8.937682527   107.5666   6   7   0.5626   0.5159   1.2434   0.2864   0.2124   0.3636   0.00    0.0      1
2218 309599   44.399811729    8.937682600   107.5508   6   7   0.5611   0.5145   1.2394   0.2858   0.2123   0.3627   0.00    0.0      1
2218 309600   44.399811846    8.937682742   107.5199   6   7   0.5596   0.5132   1.2355   0.2852   0.2121   0.3618   0.00    0.0      1
2218 309601   44.399811852    8.937682768   107.5266   6   7   0.5582   0.5118   1.2316   0.2846   0.2120   0.3609   0.00    0.0      1
2218 309602   44.399811733    8.937682969   107.4944   6   7   0.5568   0.5105   1.2277   0.2840   0.2118   0.3600   0.00    0.0      1
2218 309603   44.399811855    8.937683023   107.4838   6   7   0.5554   0.5092   1.2239   0.2834   0.2117   0.3592   0.00    0.0      1
2218 309604   44.399811987    8.937683021   107.4739   6   7   0.5540   0.5079   1.2201   0.2828   0.2115   0.3583   0.00    0.0      1
2218 309605   44.399811918    8.937683023   107.4601   6   7   0.5526   0.5066   1.2164   0.2822   0.2114   0.3575   0.00    0.0      1
2218 309606   44.399811999    8.937683231   107.4413   6   7   0.5513   0.5054   1.2127   0.2816   0.2112   0.3566   0.00    0.0      1
2218 309607   44.399812042    8.937683196   107.4244   6   7   0.5499   0.5041   1.2091   0.2810   0.2111   0.3558   0.00    0.0      1
2218 309608   44.399812020    8.937683403   107.3994   6   7   0.5486   0.5029   1.2055   0.2805   0.2110   0.3550   0.00    0.0      1
2218 309609   44.399812045    8.937683478   107.3699   6   7   0.5473   0.5017   1.2019   0.2799   0.2108   0.3541   0.00    0.0      1
2218 309610   44.399811959    8.937683508   107.3580   6   7   0.5460   0.5005   1.1983   0.2794   0.2107   0.3533   0.00    0.0      1
2218 309611   44.399812023    8.937683709   107.3645   6   7   0.5447   0.4993   1.1948   0.2788   0.2106   0.3525   0.00    0.0      1
2218 309612   44.399812120    8.937683766   107.3413   6   7   0.5434   0.4981   1.1914   0.2783   0.2104   0.3518   0.00    0.0      1
2218 309613   44.399812203    8.937683748   107.3363   6   7   0.5421   0.4969   1.1879   0.2778   0.2103   0.3510   0.00    0.0      1
2218 309614   44.399812306    8.937683813   107.3437   6   7   0.5409   0.4958   1.1845   0.2772   0.2102   0.3502   0.00    0.0      1
2218 309625   44.399812144    8.937683932   107.2613   6   7   0.5409   0.4956   1.1851   0.2784   0.2174   0.3539   0.00    0.0      1
2218 309626   44.399812128    8.937683794   107.2622   6   7   0.5397   0.4944   1.1817   0.2778   0.2172   0.3531   0.00    0.0      1
2218 309627   44.399812123    8.937683752   107.2230   6   7   0.5382   0.4932   1.1775   0.2771   0.2163   0.3514   0.00    0.0      1
2218 309628   44.399812143    8.937683932   107.1745   6   7   0.5362   0.4916   1.1722   0.2758   0.2144   0.3488   0.00    0.0      1
2218 309629   44.399812080    8.937683867   107.1432   6   7   0.5348   0.4904   1.1677   0.2750   0.2131   0.3469   0.00    0.0      1
2218 309630   44.399811990    8.937683823   107.1036   6   7   0.5335   0.4893   1.1644   0.2745   0.2129   0.3460   0.00    0.0      1
2218 309631   44.399812150    8.937683836   107.0892   6   7   0.5324   0.4883   1.1612   0.2740   0.2127   0.3452   0.00    0.0      1
2218 309632   44.399812038    8.937683715   107.0642   6   7   0.5312   0.4872   1.1580   0.2735   0.2126   0.3445   0.00    0.0      1
2218 309633   44.399812013    8.937684058   107.0067   6   7   0.5300   0.4862   1.1549   0.2730   0.2124   0.3437   0.00    0.0      1
2218 309634   44.399811967    8.937683957   106.9643   6   7   0.5289   0.4851   1.1518   0.2726   0.2123   0.3430   0.00    0.0      1
2218 309635   44.399811785    8.937684058   106.9080   6   7   0.5278   0.4841   1.1487   0.2721   0.2121   0.3422   0.00    0.0      1
2218 309636   44.399811763    8.937684018   106.8629   6   7   0.5266   0.4831   1.1457   0.2716   0.2120   0.3415   0.00    0.0      1
2218 309637   44.399811686    8.937683983   106.8164   6   7   0.5255   0.4820   1.1427   0.2712   0.2118   0.3408   0.00    0.0      1
2218 309638   44.399811601    8.937683983   106.7735   6   7   0.5244   0.4810   1.1397   0.2707   0.2117   0.3400   0.00    0.0      1
2218 309639   44.399811536    8.937684171   106.7171   6   7   0.5233   0.4800   1.1367   0.2703   0.2116   0.3393   0.00    0.0      1
2218 309640   44.399811508    8.937684086   106.6617   6   7   0.5222   0.4791   1.1338   0.2698   0.2114   0.3386   0.00    0.0      1
2218 309641   44.399811495    8.937684238   106.6254   6   7   0.5212   0.4781   1.1309   0.2694   0.2113   0.3379   0.00    0.0      1
2218 309642   44.399811351    8.937684238   106.5711   6   7   0.5201   0.4771   1.1280   0.2689   0.2112   0.3372   0.00    0.0      1
2218 309643   44.399811421    8.937684125   106.5294   6   7   0.5191   0.4762   1.1251   0.2685   0.2110   0.3366   0.00    0.0      1
2218 309644   44.399811310    8.937684219   106.4746   6   7   0.5180   0.4752   1.1223   0.2681   0.2109   0.3359   0.00    0.0      1
2218 309645   44.399811388    8.937684227   106.4235   6   7   0.5170   0.4743   1.1195   0.2677   0.2108   0.3352   0.00    0.0      1
2218 309646   44.399811402    8.937684145   106.3997   6   7   0.5160   0.4733   1.1167   0.2672   0.2107   0.3345   0.00    0.0      1
2218 309647   44.399811260    8.937684072   106.3545   6   7   0.5150   0.4724   1.1139   0.2668   0.2106   0.3339   0.00    0.0      1
2218 309648   44.399811255    8.937684158   106.3041   6   7   0.5140   0.4715   1.1112   0.2664   0.2104   0.3332   0.00    0.0      1
2218 309649   44.399811275    8.937684139   106.2637   6   7   0.5130   0.4706   1.1085   0.2660   0.2103   0.3326   0.00    0.0      1
2218 309650   44.399811465    8.937684212   106.2530   6   7   0.5120   0.4697   1.1058   0.2656   0.2102   0.3319   0.00    0.0      1
2218 309651   44.399811341    8.937684240   106.2054   6   7   0.5110   0.4688   1.1031   0.2652   0.2101   0.3313   0.00    0.0      1
2218 309652   44.399811272    8.937684161   106.1596   6   7   0.5100   0.4680   1.1005   0.2648   0.2100   0.3307   0.00    0.0      1
2218 309653   44.399811217    8.937684079   106.1422   6   7   0.5091   0.4671   1.0978   0.2644   0.2099   0.3300   0.00    0.0      1
2218 309654   44.399811203    8.937684193   106.1018   6   7   0.5081   0.4662   1.0952   0.2640   0.2098   0.3294   0.00    0.0      1
2218 309655   44.399811085    8.937684211   106.0611   6   7   0.5072   0.4654   1.0927   0.2636   0.2096   0.3288   0.00    0.0      1
2218 309656   44.399811215    8.937684103   106.0429   6   7   0.5063   0.4645   1.0901   0.2633   0.2095   0.3282   0.00    0.0      1
2218 309657   44.399811199    8.937684011   106.0260   6   7   0.5053   0.4637   1.0876   0.2629   0.2094   0.3276   0.00    0.0      1
2218 309658   44.399811184    8.937683944   106.0081   6   7   0.5044   0.4628   1.0850   0.2625   0.2093   0.3270   0.00    0.0      1
2218 309659   44.399811059    8.937683940   105.9838   6   7   0.5035   0.4620   1.0825   0.2621   0.2092   0.3264   0.00    0.0      1
2218 309660   44.399811029    8.937684051   105.9424   6   7   0.5026   0.4612   1.0801   0.2618   0.2091   0.3258   0.00    0.0      1
2218 309661   44.399810900    8.937683892   105.9438   6   7   0.5017   0.4604   1.0776   0.2614   0.2090   0.3252   0.00    0.0      1
2218 309662   44.399810868    8.937684022   105.9209   6   7   0.5008   0.4596   1.0752   0.2610   0.2089   0.3246   0.00    0.0      1
2218 309663   44.399811010    8.937684016   105.9231   6   7   0.4999   0.4588   1.0727   0.2607   0.2088   0.3241   0.00    0.0      1
2218 309664   44.399810903    8.937684009   105.8944   6   7   0.4991   0.4580   1.0703   0.2603   0.2087   0.3235   0.00    0.0      1
2218 309665   44.399810882    8.937684142   105.8721   6   7   0.4982   0.4572   1.0680   0.2600   0.2086   0.3229   0.00    0.0      1
2218 309666   44.399810908    8.937683498   105.8361   6   6   0.4974   0.6048   1.1372   0.2647   0.4478   0.3263   0.00    0.0      1
2218 309667   44.399810918    8.937683419   105.8034   6   6   0.4967   0.6089   1.1416   0.2663   0.4576   0.3281   0.00    0.0      1
2218 309668   44.399810923    8.937683588   105.8032   6   6   0.4959   0.6088   1.1405   0.2660   0.4585   0.3275   0.00    0.0      1
2218 309669   44.399810914    8.937683664   105.8030   6   6   0.4951   0.6086   1.1394   0.2659   0.4594   0.3271   0.00    0.0      1
2218 309670   44.399810850    8.937683580   105.7592   6   6   0.4943   0.6081   1.1381   0.2655   0.4599   0.3265   0.00    0.0      1
2218 309671   44.399810897    8.937683613   105.7536   6   6   0.4935   0.6077   1.1369   0.2652   0.4604   0.3258   0.00    0.0      1
2218 309672   44.399810796    8.937683591   105.7346   6   6   0.4926   0.6073   1.1357   0.2648   0.4609   0.3252   0.00    0.0      1
2218 309673   44.399810816    8.937683796   105.7268   6   6   0.4918   0.6069   1.1344   0.2645   0.4614   0.3245   0.00    0.0      1
2218 309674   44.399811043    8.937683666   105.7230   6   6   0.4910   0.6065   1.1332   0.2641   0.4618   0.3239   0.00    0.0      1
2218 309675   44.399810876    8.937683778   105.7110   6   6   0.4902   0.6061   1.1319   0.2638   0.4622   0.3233   0.00    0.0      1
2218 309676   44.399810922    8.937683745   105.7027   6   6   0.4895   0.6057   1.1307   0.2634   0.4627   0.3227   0.00    0.0      1
2218 309677   44.399810889    8.937683752   105.7078   6   6   0.4887   0.6053   1.1295   0.2631   0.4631   0.3220   0.00    0.0      1
2218 309678   44.399811005    8.937683692   105.6715   6   6   0.4879   0.6049   1.1282   0.2628   0.4635   0.3214   0.00    0.0      1
2218 309679   44.399810879    8.937683689   105.6598   6   6   0.4871   0.6045   1.1270   0.2624   0.4639   0.3208   0.00    0.0      1
2218 309680   44.399810847    8.937683685   105.6527   6   6   0.4864   0.6041   1.1258   0.2621   0.4644   0.3202   0.00    0.0      1
2218 309681   44.399810897    8.937683700   105.6395   6   6   0.4856   0.6037   1.1246   0.2618   0.4648   0.3196   0.00    0.0      1
2218 309682   44.399810951    8.937683715   105.6368   6   6   0.4849   0.6034   1.1234   0.2615   0.4652   0.3190   0.00    0.0      1
2218 309683   44.399811027    8.937683703   105.6172   6   6   0.4841   0.6030   1.1222   0.2611   0.4656   0.3184   0.00    0.0      1
2218 309684   44.399811075    8.937683820   105.6306   6   6   0.4834   0.6026   1.1210   0.2608   0.4660   0.3178   0.00    0.0      1
2218 309685   44.399810950    8.937683818   105.6398   6   6   0.4826   0.6022   1.1199   0.2605   0.4663   0.3172   0.00    0.0      1
2218 309686   44.399810967    8.937683817   105.5974   6   6   0.4819   0.6019   1.1187   0.2602   0.4667   0.3167   0.00    0.0      1
2218 309687   44.399810936    8.937683785   105.5755   6   6   0.4812   0.6015   1.1175   0.2599   0.4671   0.3161   0.00    0.0      1
2218 309688   44.399810940    8.937683844   105.5752   6   6   0.4805   0.6012   1.1164   0.2596   0.4675   0.3155   0.00    0.0      1
2218 309689   44.399810937    8.937683968   105.5343   6   6   0.4797   0.6008   1.1152   0.2593   0.4678   0.3150   0.00    0.0      1
2218 309690   44.399810897    8.937683961   105.5253   6   6   0.4790   0.6005   1.1141   0.2590   0.4682   0.3144   0.00    0.0      1
2218 309691   44.399811009    8.937684002   105.5113   6   6   0.4783   0.6001   1.1130   0.2587   0.4686   0.3138   0.00    0.0      1
2218 309692   44.399811052    8.937684010   105.4969   6   6   0.4776   0.5998   1.1118   0.2584   0.4689   0.3133   0.00    0.0      1
2218 309693   44.399810903    8.937684068   105.4572   6   6   0.4769   0.5994   1.1107   0.2581   0.4693   0.3127   0.00    0.0      1
2218 309694   44.399811187    8.937684109   105.4789   6   6   0.4762   0.5991   1.1096   0.2578   0.4696   0.3122   0.00    0.0      1
2218 309695   44.399811146    8.937684262   105.4411   6   6   0.4756   0.5988   1.1085   0.2575   0.4700   0.3116   0.00    0.0      1
2218 309696   44.399810719    8.937684733   105.3804   6   4   0.5140   0.9710   1.2380   0.2701   0.7556   0.4025   0.00    0.0      1
2218 309697   44.399810814    8.937684565   105.3606   6   4   0.5151   0.9921   1.2546   0.2831   0.7829   0.4121   0.00    0.0      1
2218 309698   44.399810708    8.937684715   105.3046   6   4   0.5148   0.9925   1.2538   0.2825   0.7830   0.4120   0.00    0.0      1
2218 309699   44.399810710    8.937684675   105.3195   6   4   0.5144   0.9936   1.2535   0.2824   0.7842   0.4119   0.00    0.0      1
2218 309700   44.399810699    8.937684872   105.3130   6   4   0.5140   0.9938   1.2527   0.2821   0.7845   0.4117   0.00    0.0      1
2218 309701   44.399810825    8.937684459   105.2633   6   4   0.5137   0.9939   1.2521   0.2822   0.7847   0.4118   0.00    0.0      1
2218 309702   44.399810828    8.937684536   105.2267   6   4   0.5134   0.9940   1.2516   0.2824   0.7852   0.4121   0.00    0.0      1
2218 309703   44.399810795    8.937684422   105.2004   6   4   0.5131   0.9941   1.2510   0.2826   0.7855   0.4123   0.00    0.0      1
2218 309704   44.399810748    8.937684417   105.1809   6   4   0.5128   0.9942   1.2504   0.2826   0.7858   0.4124   0.00    0.0      1
2218 309705   44.399810795    8.937684419   105.1740   6   4   0.5124   0.9942   1.2497   0.2826   0.7860   0.4124   0.00    0.0      1
2218 309706   44.399810630    8.937684730   105.1428   6   4   0.5121   0.9943   1.2490   0.2826   0.7862   0.4125   0.00    0.0      1
2218 309707   44.399810786    8.937684484   105.1264   6   4   0.5118   0.9943   1.2483   0.2826   0.7864   0.4125   0.00    0.0      1
2218 309708   44.399810791    8.937684137   105.1107   6   4   0.5115   0.9944   1.2476   0.2826   0.7866   0.4126   0.00    0.0      1
2218 309709   44.399810705    8.937684152   105.1133   6   4   0.5112   0.9944   1.2469   0.2826   0.7868   0.4127   0.00    0.0      1
2218 309710   44.399810735    8.937684274   105.0728   6   4   0.5109   0.9945   1.2463   0.2826   0.7870   0.4127   0.00    0.0      1
2218 309711   44.399810684    8.937684229   105.0537   6   4   0.5106   0.9946   1.2456   0.2827   0.7873   0.4128   0.00    0.0      1
2218 309712   44.399810766    8.937683782   105.0240   6   4   0.5103   0.9946   1.2449   0.2827   0.7875   0.4129   0.00    0.0      1
2218 309713   44.399810587    8.937683985   105.0191   6   4   0.5100   0.9947   1.2443   0.2827   0.7877   0.4129   0.00    0.0      1
2218 309714   44.399810573    8.937684078   104.9977   6   4   0.5097   0.9947   1.2436   0.2827   0.7879   0.4130   0.00    0.0      1
2218 309715   44.399810842    8.937683760   105.0179   6   4   0.5094   0.9948   1.2430   0.2827   0.7881   0.4131   0.00    0.0      1
2218 309716   44.399810624    8.937684238   105.0002   6   4   0.5091   0.9949   1.2423   0.2827   0.7883   0.4131   0.00    0.0      1
2218 309717   44.399810771    8.937684130   104.9962   6   4   0.5088   0.9949   1.2417   0.2828   0.7885   0.4132   0.00    0.0      1
2218 309718   44.399810590    8.937684386   104.9746   6   4   0.5085   0.9950   1.2410   0.2828   0.7888   0.4133   0.00    0.0      1
2218 309719   44.399810658    8.937684254   104.9808   6   4   0.5082   0.9950   1.2404   0.2828   0.7890   0.4133   0.00    0.0      1
2218 309720   44.399810698    8.937684145   104.9627   6   4   0.5079   0.9951   1.2397   0.2828   0.7892   0.4134   0.00    0.0      1
2218 309721   44.399810736    8.937684117   104.9631   6   4   0.5076   0.9952   1.2391   0.2828   0.7894   0.4135   0.00    0.0      1
2218 309722   44.399810642    8.937684124   104.9783   6   4   0.5073   0.9952   1.2385   0.2829   0.7896   0.4135   0.00    0.0      1
2218 309723   44.399810558    8.937684362   104.9465   6   4   0.5070   0.9953   1.2378   0.2829   0.7898   0.4136   0.00    0.0      1
2218 309724   44.399810470    8.937684384   104.9323   6   4   0.5068   0.9953   1.2372   0.2829   0.7900   0.4137   0.00    0.0      1
2218 309725   44.399810527    8.937684204   104.9370   6   4   0.5065   0.9954   1.2366   0.2829   0.7902   0.4137   0.00    0.0      1
2218 309726   44.399810567    8.937684226   104.9531   6   4   0.5062   0.9955   1.2360   0.2830   0.7904   0.4138   0.00    0.0      1
2218 309727   44.399810658    8.937684377   104.9418   6   4   0.5059   0.9955   1.2354   0.2830   0.7906   0.4139   0.00    0.0      1
2218 309728   44.399810792    8.937683909   104.9209   6   4   0.5057   0.9956   1.2347   0.2830   0.7908   0.4139   0.00    0.0      1
2218 309729   44.399810673    8.937683982   104.9208   6   4   0.5054   0.9956   1.2341   0.2830   0.7910   0.4140   0.00    0.0      1
2218 309730   44.399810524    8.937684182   104.9214   6   4   0.5051   0.9957   1.2335   0.2831   0.7912   0.4141   0.00    0.0      1
2218 309731   44.399810495    8.937684265   104.9071   6   4   0.5049   0.9958   1.2329   0.2831   0.7914   0.4141   0.00    0.0      1
2218 309732   44.399810446    8.937684045   104.8897   6   4   0.5046   0.9958   1.2323   0.2831   0.7916   0.4142   0.00    0.0      1
2218 309733   44.399810570    8.937683674   104.8885   6   4   0.5043   0.9959   1.2317   0.2832   0.7918   0.4142   0.00    0.0      1
2218 309734   44.399810705    8.937683614   104.8875   6   4   0.5041   0.9960   1.2311   0.2832   0.7920   0.4143   0.00    0.0      1
2218 309735   44.399810429    8.937683915   104.8594   6   4   0.5038   0.9960   1.2305   0.2832   0.7922   0.4144   0.00    0.0      1
2218 309736   44.399810616    8.937683649   104.8810   6   4   0.5036   0.9961   1.2299   0.2833   0.7924   0.4144   0.00    0.0      1
2218 309737   44.399810781    8.937683361   104.8786   6   4   0.5033   0.9962   1.2293   0.2833   0.7926   0.4145   0.00    0.0      1
2218 309738   44.399810814    8.937683191   104.8708   6   4   0.5031   0.9962   1.2287   0.2833   0.7928   0.4146   0.00    0.0      1
2218 309739   44.399810885    8.937683026   104.8778   6   4   0.5028   0.9963   1.2282   0.2834   0.7930   0.4146   0.00    0.0      1
2218 309740   44.399810567    8.937683309   104.8652   6   4   0.5026   0.9964   1.2276   0.2834   0.7932   0.4147   0.00    0.0      1
2218 309741   44.399810670    8.937683088   104.8467   6   4   0.5023   0.9964   1.2270   0.2834   0.7934   0.4148   0.00    0.0      1
2218 309742   44.399810896    8.937683046   104.8600   6   4   0.5021   0.9965   1.2264   0.2835   0.7936   0.4148   0.00    0.0      1
2218 309743   44.399810787    8.937683064   104.8464   6   4   0.5018   0.9965   1.2258   0.2835   0.7938   0.4149   0.00    0.0      1
2218 309744   44.399810772    8.937683011   104.8683   6   4   0.5016   0.9966   1.2253   0.2835   0.7940   0.4149   0.00    0.0      1
2218 309745   44.399810760    8.937683299   104.8624   6   4   0.5013   0.9967   1.2247   0.2836   0.7942   0.4150   0.00    0.0      1
2218 309746   44.399810826    8.937683084   104.8582   6   4   0.5011   0.9968   1.2241   0.2836   0.7944   0.4151   0.00    0.0      1
2218 309747   44.399810862    8.937682975   104.8653   6   4   0.5008   0.9968   1.2236   0.2836   0.7946   0.4151   0.00    0.0      1
2218 309748   44.399810951    8.937682915   104.8747   6   4   0.5006   0.9969   1.2230   0.2837   0.7948   0.4152   0.00    0.0      1
2218 309749   44.399811045    8.937682690   104.8691   6   4   0.5004   0.9970   1.2224   0.2837   0.7950   0.4153   0.00    0.0      1
2218 309750   44.399810994    8.937682882   104.8746   6   4   0.5001   0.9970   1.2219   0.2838   0.7951   0.4153   0.00    0.0      1
2218 309751   44.399811198    8.937682590   104.8777   6   4   0.4999   0.9971   1.2213   0.2838   0.7953   0.4154   0.00    0.0      1
2218 309752   44.399811059    8.937682943   104.8734   6   4   0.4997   0.9972   1.2208   0.2838   0.7955   0.4155   0.00    0.0      1
2218 309753   44.399811024    8.937682935   104.8561   6   4   0.4994   0.9972   1.2202   0.2839   0.7957   0.4155   0.00    0.0      1
2218 309754   44.399811117    8.937682740   104.8630   6   4   0.4992   0.9973   1.2197   0.2839   0.7959   0.4156   0.00    0.0      1
2218 309758   44.399811637    8.937687985   105.3370   6   4   1.2846   7.3918   8.3594   2.9573   7.8230   3.1557   0.00    0.0      1
2218 309759   44.399811527    8.937685924   105.1284   6   4   0.8519   3.9633   4.6669   1.6581   4.2348   1.8144   0.00    0.0      1
2218 309760   44.399811646    8.937687192   105.2379   6   4   0.7686   3.5594   4.1142   1.4483   3.7518   1.5751   0.00    0.0      1
2218 309761   44.399811826    8.937687282   105.2672   6   4   0.7158   3.2186   3.6907   1.2926   3.3628   1.4046   0.00    0.0      1
2218 309762   44.399811669    8.937687704   105.2724   6   4   0.6941   2.9910   3.4482   1.2096   3.1218   1.3204   0.00    0.0      1
2218 309763   44.399811651    8.937687888   105.2916   6   4   0.6838   2.8392   3.2986   1.1616   2.9667   1.2739   0.00    0.0      1
2218 309764   44.399811689    8.937688242   105.3469   6   4   0.6737   2.7115   3.1670   1.1183   2.8331   1.2308   0.00    0.0      1
2218 309765   44.399811889    8.937688429   105.3541   6   4   0.6628   2.5979   3.0425   1.0758   2.7101   1.1871   0.00    0.0      1
2218 309766   44.399811908    8.937688366   105.3615   6   4   0.6524   2.4974   2.9290   1.0365   2.5992   1.1462   0.00    0.0      1
2218 309767   44.399811613    8.937688196   105.3250   6   4   0.6433   2.4083   2.8285   1.0016   2.5007   1.1100   0.00    0.0      1
2218 309768   44.399811763    8.937688378   105.3562   6   4   0.6356   2.3288   2.7399   0.9711   2.4131   1.0786   0.00    0.0      1
2218 309769   44.399812009    8.937688850   105.4189   6   4   0.6289   2.2574   2.6610   0.9440   2.3346   1.0508   0.00    0.0      1
2218 309770   44.399811831    8.937688843   105.4129   6   4   0.6230   2.1926   2.5897   0.9196   2.2633   1.0259   0.00    0.0      1
2218 309771   44.399811944    8.937689086   105.4241   6   4   0.6177   2.1335   2.5246   0.8974   2.1981   1.0032   0.00    0.0      1
2218 309772   44.399812010    8.937689304   105.4511   6   4   0.6128   2.0792   2.4649   0.8769   2.1381   0.9824   0.00    0.0      1
2218 309773   44.399811736    8.937689123   105.4157   6   4   0.6084   2.0292   2.4099   0.8581   2.0826   0.9633   0.00    0.0      1
2218 309774   44.399811773    8.937689313   105.4053   6   4   0.6044   1.9829   2.3591   0.8408   2.0313   0.9457   0.00    0.0      1
2218 309775   44.399812070    8.937689509   105.4782   6   4   0.6007   1.9400   2.3121   0.8247   1.9835   0.9295   0.00    0.0      1
2218 309776   44.399811864    8.937689561   105.4585   6   4   0.5973   1.8999   2.2683   0.8098   1.9389   0.9144   0.00    0.0      1
2218 309777   44.399811829    8.937689170   105.4476   6   4   0.5941   1.8625   2.2275   0.7959   1.8972   0.9004   0.00    0.0      1
2218 309778   44.399811899    8.937689217   105.4562   6   4   0.5912   1.8274   2.1893   0.7829   1.8581   0.8873   0.00    0.0      1
2218 309779   44.399811522    8.937689030   105.3992   6   4   0.5885   1.7945   2.1534   0.7707   1.8212   0.8751   0.00    0.0      1
2218 309780   44.399811691    8.937689154   105.4169   6   4   0.5860   1.7634   2.1197   0.7592   1.7865   0.8636   0.00    0.0      1
2218 309781   44.399811753    8.937689027   105.4052   6   4   0.5836   1.7341   2.0879   0.7485   1.7536   0.8528   0.00    0.0      1
2218 309782   44.399811735    8.937688580   105.3881   6   4   0.5813   1.7064   2.0579   0.7383   1.7225   0.8427   0.00    0.0      1
2218 309783   44.399811706    8.937688370   105.3719   6   4   0.5792   1.6801   2.0295   0.7286   1.6929   0.8331   0.00    0.0      1
2218 309784   44.399811827    8.937687829   105.3770   6   4   0.5772   1.6551   2.0026   0.7195   1.6648   0.8240   0.00    0.0      1
2218 309785   44.399811705    8.937687639   105.3303   6   4   0.5754   1.6314   1.9770   0.7109   1.6381   0.8154   0.00    0.0      1
2218 309786   44.399811517    8.937687143   105.2980   6   4   0.5736   1.6088   1.9527   0.7026   1.6126   0.8073   0.00    0.0      1
2218 309787   44.399811391    8.937686824   105.2517   6   4   0.5719   1.5873   1.9296   0.6948   1.5882   0.7995   0.00    0.0      1
2218 309788   44.399811293    8.937685563   105.1723   6   6   0.5624   1.5265   1.8666   0.6655   1.5215   0.7689   0.00    0.0      1
2218 309789   44.399810937    8.937683856   105.0330   6   6   0.5339   1.4708   1.7773   0.6326   1.4565   0.7067   0.00    0.0      1
2218 309790   44.399810949    8.937682173   104.9373   6   6   0.5191   1.4232   1.7124   0.6084   1.4027   0.6674   0.00    0.0      1
2218 309791   44.399810748    8.937681008   104.8303   6   6   0.5105   1.3811   1.6644   0.5891   1.3567   0.6412   0.00    0.0      1
2218 309792   44.399810737    8.937680057   104.7574   6   6   0.5045   1.3430   1.6251   0.5725   1.3157   0.6214   0.00    0.0      1
2218 309793   44.399810366    8.937678647   104.6353   6   6   0.4997   1.3082   1.5905   0.5576   1.2784   0.6044   0.00    0.0      1
2218 309794   44.399810338    8.937677323   104.5406   6   6   0.4955   1.2762   1.5591   0.5441   1.2441   0.5893   0.00    0.0      1
2218 309795   44.399810287    8.937676175   104.4580   6   6   0.4919   1.2467   1.5305   0.5317   1.2125   0.5756   0.00    0.0      1
2218 309796   44.399810054    8.937674787   104.3588   6   6   0.4887   1.2192   1.5043   0.5203   1.1831   0.5632   0.00    0.0      1
2218 309797   44.399809890    8.937673663   104.3041   6   6   0.4858   1.1937   1.4802   0.5098   1.1557   0.5520   0.00    0.0      1
2218 309798   44.399809802    8.937672940   104.2349   6   6   0.4833   1.1698   1.4579   0.4999   1.1301   0.5416   0.00    0.0      1
2218 309799   44.399809849    8.937672246   104.1878   6   6   0.4809   1.1475   1.4371   0.4908   1.1062   0.5320   0.00    0.0      1
2218 309800   44.399809782    8.937671544   104.1364   6   6   0.4787   1.1264   1.4177   0.4822   1.0836   0.5231   0.00    0.0      1
2218 309801   44.399809641    8.937670703   104.0899   6   6   0.4767   1.1067   1.3996   0.4741   1.0623   0.5147   0.00    0.0      1
2218 309802   44.399809572    8.937669994   104.0220   6   6   0.4748   1.0880   1.3826   0.4665   1.0422   0.5069   0.00    0.0      1
2218 309803   44.399809503    8.937669306   104.0074   6   6   0.4730   1.0703   1.3665   0.4594   1.0232   0.4996   0.00    0.0      1
2218 309804   44.399809413    8.937668832   103.9675   6   6   0.4714   1.0536   1.3514   0.4526   1.0051   0.4927   0.00    0.0      1
2218 309805   44.399809385    8.937668039   103.9321   6   6   0.4698   1.0377   1.3370   0.4462   0.9880   0.4862   0.00    0.0      1
2218 309806   44.399809429    8.937667338   103.8964   6   6   0.4684   1.0226   1.3234   0.4401   0.9716   0.4800   0.00    0.0      1
2218 309807   44.399809182    8.937666757   103.8545   6   6   0.4670   1.0082   1.3105   0.4343   0.9561   0.4742   0.00    0.0      1
2218 309808   44.399809099    8.937666239   103.8251   6   6   0.4656   0.9944   1.2983   0.4288   0.9412   0.4687   0.00    0.0      1
2218 309809   44.399809255    8.937666229   103.8486   6   6   0.4644   0.9813   1.2866   0.4235   0.9270   0.4634   0.00    0.0      1
2218 309810   44.399809126    8.937665778   103.7993   6   6   0.4631   0.9687   1.2754   0.4185   0.9133   0.4584   0.00    0.0      1
2218 309811   44.399809021    8.937665375   103.7991   6   6   0.4620   0.9567   1.2647   0.4137   0.9003   0.4536   0.00    0.0      1
2218 309812   44.399809118    8.937665150   103.8068   6   6   0.4609   0.9452   1.2545   0.4091   0.8877   0.4490   0.00    0.0      1
2218 309813   44.399808927    8.937664763   103.7906   6   6   0.4598   0.9341   1.2447   0.4047   0.8757   0.4447   0.00    0.0      1
2218 309814   44.399809080    8.937664465   103.8004   6   6   0.4588   0.9235   1.2354   0.4005   0.8641   0.4405   0.00    0.0      1
2218 309815   44.399809054    8.937664082   103.7809   6   6   0.4578   0.9133   1.2263   0.3965   0.8530   0.4365   0.00    0.0      1
2218 309816   44.399808910    8.937663693   103.7741   6   6   0.4568   0.9035   1.2177   0.3926   0.8422   0.4326   0.00    0.0      1
2218 309817   44.399808955    8.937663634   103.7847   6   6   0.4559   0.8940   1.2093   0.3888   0.8319   0.4290   0.00    0.0      1
