%  GPST       latitude(deg) longitude(deg)  height(m)   Q  ns   sdn(m)   sde(m)   sdu(m)  sdne(m)  sdeu(m)  sdun(m) age(s)  ratio
2218 460321   44.399808998    8.937669828   106.3967   2   7   1.9526   1.2248   2.9259   0.4602   0.3589  -1.4396   0.00    0.0
2218 460322   44.399808866    8.937669727   106.4174   2   7   1.4467   0.9063   2.1416   0.3628   0.2676  -1.0438   1.00    0.0
2218 460323   44.399808935    8.937669884   106.4232   2   7   1.1998   0.7520   1.7682   0.3073   0.2231  -0.8584   1.00    0.0
2218 460324   44.399808917    8.937669738   106.4545   2   7   1.0461   0.6566   1.5384   0.2708   0.1955  -0.7450   1.00    0.0
2218 460325   44.399808576    8.937669672   106.4941   2   7   0.9382   0.5902   1.3783   0.2443   0.1762  -0.6663   1.00    0.0
2218 460326   44.399808786    8.937669725   106.4256   2   7   0.8569   0.5406   1.2581   0.2240   0.1619  -0.6074   1.00    0.0
2218 460327   44.399808951    8.937669923   106.4137   2   7   0.7925   0.5017   1.1633   0.2077   0.1506  -0.5609   1.00    0.0
2218 460328   44.399808996    8.937670210   106.4045   2   7   0.7396   0.4701   1.0859   0.1941   0.1415  -0.5230   1.00    0.0
2218 460329   44.399808944    8.937670284   106.3504   2   7   0.6951   0.4438   1.0208   0.1826   0.1339  -0.4911   1.00    0.0
2218 460330   44.399808612    8.937670354   106.3222   2   7   0.6568   0.4215   0.9650   0.1726   0.1275  -0.4637   1.00    0.0
2218 460331   44.399808399    8.937670517   106.3262   2   7   0.6233   0.4023   0.9163   0.1638   0.1219  -0.4399   1.00    0.0
2218 460332   44.399808187    8.937670736   106.3459   2   7   0.5936   0.3854   0.8732   0.1560   0.1171  -0.4187   1.00    0.0
2218 460333   44.399808089    8.937670811   106.3980   2   7   0.5667   0.3705   0.8345   0.1488   0.1128  -0.3996   0.00    0.0
2218 460334   44.399808339    8.937670978   106.4148   2   7   0.5425   0.3572   0.7995   0.1424   0.1090  -0.3824   0.00    0.0
2218 460335   44.399808412    8.937671077   106.3637   2   7   0.5206   0.3452   0.7678   0.1365   0.1055  -0.3669   1.00    0.0
2218 460336   44.399808731    8.937671173   106.2932   2   7   0.5004   0.3343   0.7387   0.1311   0.1024  -0.3526   1.00    0.0
2218 460337   44.399808518    8.937671273   106.2303   2   7   0.4815   0.3244   0.7116   0.1260   0.0996  -0.3393   0.00    0.0
2218 460338   44.399808163    8.937671384   106.2214   2   7   0.4642   0.3154   0.6867   0.1213   0.0970  -0.3271   1.00    0.0
2218 460339   44.399808300    8.937671488   106.1681   2   7   0.4480   0.3070   0.6634   0.1169   0.0946  -0.3157   1.00    0.0
2218 460340   44.399808203    8.937671620   106.1496   2   7   0.4329   0.2993   0.6417   0.1127   0.0923  -0.3050   1.00    0.0
2218 460341   44.399808061    8.937671654   106.2014   2   7   0.4186   0.2921   0.6212   0.1088   0.0903  -0.2950   1.00    0.0
2218 460342   44.399808178    8.937671719   106.2150   2   7   0.4051   0.2854   0.6019   0.1051   0.0883  -0.2855   1.00    0.0
2218 460343   44.399808209    8.937671809   106.2297   2   7   0.3924   0.2791   0.5836   0.1016   0.0865  -0.2766   1.00    0.0
2218 460344   44.399808431    8.937671889   106.1994   2   7   0.3804   0.2733   0.5683   0.0982   0.0852  -0.2685   1.00    0.0
2218 460345   44.399808263    8.937671916   106.1873   2   7   0.3688   0.2677   0.5536   0.0947   0.0835  -0.2612   1.00    0.0
2218 460346   44.399808139    8.937671860   106.1774   2   7   0.3578   0.2624   0.5435   0.0910   0.0823  -0.2555   1.00    0.0
2218 460347   44.399808317    8.937671843   106.1507   2   7   0.3476   0.2575   0.5336   0.0881   0.0811  -0.2501   1.00    0.0
2218 460348   44.399808444    8.937671794   106.1333   2   7   0.3378   0.2529   0.5240   0.0852   0.0800  -0.2448   0.00    0.0
2218 460349   44.399808552    8.937671745   106.1102   2   7   0.3286   0.2485   0.5148   0.0826   0.0789  -0.2398   1.00    0.0
2218 460350   44.399808432    8.937671606   106.0846   2   7   0.3197   0.2443   0.5058   0.0800   0.0779  -0.2350   1.00    0.0
2218 460351   44.399808103    8.937671459   106.0757   2   7   0.3113   0.2404   0.4971   0.0776   0.0769  -0.2304   1.00    0.0
2218 460352   44.399807897    8.937671300   106.0478   2   7   0.3031   0.2366   0.4886   0.0752   0.0760  -0.2259   1.00    0.0
2218 460353   44.399807896    8.937671214   106.0324   2   7   0.2953   0.2329   0.4803   0.0729   0.0751  -0.2215   1.00    0.0
2218 460354   44.399807776    8.937671062   106.0058   2   7   0.2878   0.2295   0.4723   0.0708   0.0742  -0.2173   1.00    0.0
2218 460355   44.399807692    8.937670898   105.9778   2   7   0.2806   0.2262   0.4643   0.0686   0.0734  -0.2131   1.00    0.0
2218 460356   44.399807659    8.937670781   105.9582   2   7   0.2737   0.2230   0.4566   0.0666   0.0726  -0.2091   1.00    0.0
2218 460357   44.399807554    8.937670664   105.9369   2   7   0.2670   0.2200   0.4490   0.0646   0.0718  -0.2052   1.00    0.0
2218 460358   44.399807518    8.937670572   105.9106   2   7   0.2605   0.2171   0.4415   0.0627   0.0710  -0.2014   1.00    0.0
2218 460359   44.399813152    8.937673782   105.7401   1   7   0.0072   0.0043   0.0107   0.0018   0.0018  -0.0051   1.00    4.8
2218 460360   44.399813170    8.937673816   105.7352   1   7   0.0074   0.0046   0.0108   0.0019   0.0012  -0.0051   1.00    4.8
2218 460361   44.399813162    8.937673804   105.7413   1   7   0.0073   0.0045   0.0108   0.0022   0.0009  -0.0050   1.00    4.8
2218 460362   44.399813165    8.937673800   105.7387   1   7   0.0074   0.0046   0.0107   0.0020   0.0014  -0.0052   1.00    4.8
2218 460363   44.399813145    8.937673807   105.7408   1   7   0.0073   0.0046   0.0107   0.0025   0.0013  -0.0052   1.00    4.8
2218 460364   44.399813168    8.937673817   105.7423   1   7   0.0073   0.0046   0.0108   0.0018   0.0011  -0.0052   1.00    4.8
2218 460365   44.399813182    8.937673791   105.7391   1   7   0.0073   0.0044   0.0108   0.0018   0.0017  -0.0052   1.00    4.8
2218 460366   44.399813161    8.937673793   105.7448   1   7   0.0072   0.0045   0.0106   0.0020   0.0016  -0.0050   0.00    4.9
2218 460367   44.399813169    8.937673801   105.7432   1   7   0.0074   0.0046   0.0108   0.0018   0.0014  -0.0052   1.00    4.9
2218 460368   44.399813161    8.937673820   105.7431   1   7   0.0073   0.0045   0.0108   0.0020   0.0015  -0.0051   1.00    4.9
2218 460369   44.399813157    8.937673787   105.7457   1   7   0.0074   0.0049   0.0107   0.0020   0.0014  -0.0052   1.00    5.0
2218 460370   44.399813123    8.937673804   105.7492   1   7   0.0073   0.0044   0.0108   0.0020   0.0016  -0.0051   1.00    5.0
2218 460371   44.399813118    8.937673811   105.7508   1   7   0.0074   0.0047   0.0108   0.0024   0.0014  -0.0052   1.00    5.1
2218 460372   44.399813122    8.937673778   105.7503   1   7   0.0074   0.0043   0.0108   0.0019   0.0015  -0.0051   1.00    5.2
2218 460373   44.399813118    8.937673789   105.7481   1   8   0.0074   0.0045   0.0107   0.0018   0.0011  -0.0050   1.00    5.2
2218 460374   44.399813147    8.937673789   105.7474   1   8   0.0071   0.0049   0.0106   0.0018   0.0007  -0.0054   1.00    5.2
2218 460375   44.399813126    8.937673795   105.7482   1   8   0.0070   0.0042   0.0107   0.0021   0.0014  -0.0055   1.00    5.3
2218 460376   44.399813116    8.937673797   105.7456   1   8   0.0070   0.0045   0.0105   0.0019   0.0019  -0.0056   1.00    5.3
2218 460377   44.399813143    8.937673799   105.7509   1   8   0.0069   0.0045   0.0103   0.0023   0.0014  -0.0056   0.00    3.7
2218 460378   44.399813141    8.937673805   105.7526   1   8   0.0069   0.0046   0.0105   0.0022   0.0015  -0.0056   1.00    4.2
2218 460379   44.399813122    8.937673810   105.7547   1   8   0.0069   0.0046   0.0106   0.0020   0.0014  -0.0056   1.00    4.5
2218 460380   44.399813151    8.937673782   105.7557   1   8   0.0068   0.0044   0.0106   0.0018   0.0014  -0.0057   1.00    4.8
2218 460381   44.399813128    8.937673826   105.7557   1   8   0.0069   0.0044   0.0105   0.0019   0.0018  -0.0057   1.00    5.3
2218 460382   44.399813148    8.937673813   105.7493   1   8   0.0069   0.0047   0.0105   0.0022   0.0014  -0.0057   1.00    5.5
2218 460383   44.399813149    8.937673821   105.7534   1   8   0.0067   0.0043   0.0104   0.0019   0.0014  -0.0057   0.00    5.9
2218 460384   44.399813162    8.937673810   105.7524   1   8   0.0067   0.0046   0.0103   0.0019   0.0013  -0.0056   0.00    6.2
2218 460385   44.399813145    8.937673798   105.7554   1   8   0.0070   0.0047   0.0105   0.0024   0.0015  -0.0057   1.00    6.4
2218 460386   44.399813132    8.937673835   105.7520   1   8   0.0068   0.0047   0.0105   0.0023   0.0010  -0.0057   1.00    6.5
2218 460387   44.399813136    8.937673795   105.7503   1   8   0.0068   0.0044   0.0105   0.0021   0.0018  -0.0057   1.00    6.6
2218 460388   44.399813138    8.937673802   105.7510   1   8   0.0070   0.0046   0.0105   0.0024   0.0016  -0.0057   1.00    6.6
2218 460389   44.399813130    8.937673806   105.7566   1   8   0.0069   0.0046   0.0104   0.0022   0.0015  -0.0057   1.00    6.7
2218 460390   44.399813133    8.937673798   105.7478   1   8   0.0071   0.0047   0.0104   0.0021   0.0017  -0.0057   1.00    6.9
2218 460391   44.399813141    8.937673812   105.7534   1   8   0.0070   0.0045   0.0105   0.0024   0.0017  -0.0056   1.00    7.0
2218 460392   44.399813122    8.937673795   105.7530   1   8   0.0069   0.0048   0.0105   0.0021   0.0012  -0.0056   1.00    7.1
2218 460393   44.399813160    8.937673787   105.7474   1   8   0.0069   0.0046   0.0105   0.0022   0.0016  -0.0057   1.00    7.2
2218 460394   44.399813173    8.937673816   105.7493   1   8   0.0070   0.0041   0.0105   0.0020   0.0017  -0.0056   1.00    7.2
2218 460395   44.399813170    8.937673795   105.7512   1   8   0.0071   0.0045   0.0104   0.0021   0.0014  -0.0056   1.00    7.4
2218 460396   44.399813134    8.937673811   105.7562   1   8   0.0069   0.0044   0.0105   0.0026   0.0016  -0.0056   1.00    7.4
2218 460397   44.399813144    8.937673807   105.7527   1   8   0.0071   0.0047   0.0104   0.0021   0.0016  -0.0056   1.00    7.6
2218 460398   44.399813144    8.937673790   105.7521   1   8   0.0069   0.0046   0.0105   0.0021   0.0014  -0.0056   1.00    7.7
2218 460399   44.399813153    8.937673814   105.7532   1   8   0.0069   0.0044   0.0105   0.0019   0.0016  -0.0057   1.00    7.8
2218 460400   44.399813141    8.937673813   105.7521   1   8   0.0070   0.0044   0.0106   0.0016   0.0014  -0.0056   1.00    7.9
2218 460401   44.399813145    8.937673808   105.7534   1   8   0.0068   0.0043   0.0103   0.0021   0.0018  -0.0055   0.00    8.0
2218 460402   44.399813179    8.937673794   105.7543   1   8   0.0067   0.0045   0.0103   0.0026   0.0009  -0.0055   0.00    8.0
2218 460403   44.399813173    8.937673810   105.7503   1   8   0.0070   0.0045   0.0105   0.0023   0.0015  -0.0057   1.00    7.9
2218 460404   44.399813146    8.937673808   105.7480   1   8   0.0069   0.0046   0.0105   0.0021   0.0017  -0.0056   1.00    8.0
2218 460405   44.399813194    8.937673826   105.7533   1   8   0.0069   0.0047   0.0106   0.0017   0.0016  -0.0056   1.00    8.0
2218 460406   44.399813179    8.937673809   105.7524   1   8   0.0066   0.0045   0.0104   0.0020   0.0015  -0.0055   0.00    8.0
2218 460407   44.399813193    8.937673820   105.7494   1   8   0.0068   0.0044   0.0106   0.0021   0.0017  -0.0057   1.00    8.1
2218 460408   44.399813164    8.937673789   105.7506   1   8   0.0069   0.0046   0.0105   0.0020   0.0019  -0.0056   1.00    8.1
2218 460409   44.399813179    8.937673784   105.7492   1   8   0.0068   0.0047   0.0105   0.0020   0.0013  -0.0056   1.00    8.2
2218 460410   44.399813143    8.937673791   105.7524   1   8   0.0068   0.0047   0.0105   0.0018   0.0011  -0.0057   1.00    8.2
2218 460411   44.399813191    8.937673810   105.7479   1   8   0.0068   0.0046   0.0105   0.0020   0.0015  -0.0057   1.00    8.2
2218 460412   44.399813191    8.937673803   105.7466   1   8   0.0069   0.0045   0.0105   0.0021   0.0014  -0.0056   1.00    8.2
2218 460413   44.399813183    8.937673787   105.7492   1   8   0.0068   0.0046   0.0106   0.0021   0.0016  -0.0056   1.00    8.2
2218 460414   44.399813157    8.937673824   105.7537   1   8   0.0068   0.0046   0.0104   0.0020   0.0014  -0.0055   0.00    8.3
2218 460415   44.399813164    8.937673820   105.7541   1   8   0.0068   0.0043   0.0105   0.0021   0.0015  -0.0057   1.00    8.3
2218 460416   44.399813172    8.937673790   105.7503   1   8   0.0069   0.0048   0.0106   0.0020   0.0011  -0.0056   1.00    8.4
2218 460417   44.399813152    8.937673818   105.7500   1   8   0.0070   0.0047   0.0105   0.0021   0.0013  -0.0056   1.00    8.5
2218 460418   44.399813171    8.937673822   105.7486   1   8   0.0068   0.0047   0.0106   0.0016   0.0016  -0.0055   1.00    8.5
2218 460419   44.399813166    8.937673796   105.7481   1   8   0.0067   0.0041   0.0105   0.0021   0.0021  -0.0058   1.00    8.5
2218 460420   44.399813147    8.937673804   105.7466   1   8   0.0069   0.0041   0.0104   0.0021   0.0021  -0.0057   1.00    8.5
2218 460421   44.399813139    8.937673833   105.7497   1   8   0.0071   0.0049   0.0105   0.0021   0.0011  -0.0056   1.00    8.5
2218 460422   44.399813150    8.937673827   105.7520   1   8   0.0068   0.0046   0.0104   0.0018   0.0014  -0.0055   0.00    8.6
2218 460423   44.399813186    8.937673828   105.7475   1   8   0.0070   0.0045   0.0105   0.0022   0.0018  -0.0056   1.00    8.6
2218 460424   44.399813160    8.937673818   105.7495   1   8   0.0068   0.0045   0.0105   0.0023   0.0015  -0.0057   1.00    8.7
2218 460425   44.399813159    8.937673846   105.7524   1   8   0.0068   0.0048   0.0105   0.0023   0.0013  -0.0057   1.00    8.7
2218 460426   44.399813182    8.937673838   105.7523   1   8   0.0070   0.0047   0.0104   0.0021   0.0012  -0.0057   1.00    8.7
2218 460427   44.399813147    8.937673806   105.7485   1   8   0.0068   0.0046   0.0105   0.0020   0.0014  -0.0057   1.00    8.8
2218 460428   44.399813161    8.937673830   105.7522   1   8   0.0067   0.0043   0.0105   0.0021   0.0014  -0.0057   1.00    8.8
2218 460429   44.399813156    8.937673815   105.7514   1   8   0.0066   0.0043   0.0103   0.0020   0.0017  -0.0056   0.00    8.8
2218 460430   44.399813187    8.937673835   105.7525   1   8   0.0068   0.0046   0.0106   0.0022   0.0017  -0.0056   1.00    8.8
2218 460431   44.399813147    8.937673830   105.7556   1   8   0.0070   0.0045   0.0104   0.0020   0.0017  -0.0057   1.00    8.8
2218 460432   44.399813147    8.937673783   105.7495   1   8   0.0069   0.0049   0.0106   0.0022   0.0008  -0.0056   1.00    8.9
2218 460433   44.399813124    8.937673802   105.7540   1   8   0.0070   0.0046   0.0105   0.0021   0.0009  -0.0056   1.00    8.9
2218 460434   44.399813151    8.937673784   105.7487   1   8   0.0068   0.0045   0.0106   0.0016   0.0018  -0.0056   1.00    8.9
2218 460435   44.399813138    8.937673824   105.7570   1   8   0.0069   0.0047   0.0106   0.0022   0.0016  -0.0056   1.00    9.0
2218 460436   44.399813124    8.937673791   105.7522   1   8   0.0067   0.0042   0.0106   0.0022   0.0017  -0.0057   1.00    8.9
2218 460437   44.399813145    8.937673775   105.7461   1   8   0.0069   0.0047   0.0105   0.0019   0.0015  -0.0056   1.00    9.0
2218 460438   44.399813140    8.937673781   105.7541   1   8   0.0068   0.0047   0.0105   0.0021   0.0017  -0.0055   1.00    9.0
2218 460439   44.399813133    8.937673810   105.7519   1   8   0.0067   0.0046   0.0103   0.0019   0.0014  -0.0055   0.00    9.1
2218 460440   44.399813132    8.937673802   105.7533   1   8   0.0067   0.0042   0.0106   0.0017   0.0016  -0.0058   1.00    9.1
2218 460441   44.399813110    8.937673785   105.7491   1   8   0.0069   0.0045   0.0105   0.0021   0.0015  -0.0056   1.00    9.2
2218 460442   44.399813139    8.937673816   105.7500   1   8   0.0069   0.0047   0.0105   0.0019   0.0015  -0.0056   1.00    9.2
2218 460443   44.399813148    8.937673817   105.7508   1   8   0.0070   0.0050   0.0104   0.0019   0.0015  -0.0056   1.00    9.3
2218 460444   44.399813124    8.937673778   105.7544   1   8   0.0070   0.0050   0.0105   0.0021   0.0012  -0.0056   1.00    9.3
2218 460445   44.399813146    8.937673773   105.7516   1   8   0.0068   0.0043   0.0106   0.0020   0.0019  -0.0056   1.00    9.4
2218 460446   44.399813124    8.937673799   105.7530   1   8   0.0069   0.0044   0.0105   0.0024   0.0014  -0.0056   1.00    9.4
2218 460447   44.399813144    8.937673799   105.7524   1   8   0.0069   0.0046   0.0105   0.0022   0.0017  -0.0056   1.00    9.4
2218 460448   44.399813124    8.937673792   105.7512   1   8   0.0067   0.0045   0.0103   0.0021   0.0015  -0.0055   0.00    9.5
2218 460449   44.399813134    8.937673809   105.7531   1   8   0.0070   0.0043   0.0105   0.0021   0.0018  -0.0055   1.00    9.5
2218 460450   44.399813158    8.937673782   105.7531   1   8   0.0068   0.0043   0.0105   0.0020   0.0021  -0.0057   1.00    9.6
2218 460451   44.399813135    8.937673798   105.7556   1   8   0.0067   0.0044   0.0106   0.0017   0.0022  -0.0056   1.00    9.7
2218 460452   44.399813178    8.937673791   105.7514   1   8   0.0067   0.0043   0.0105   0.0023   0.0017  -0.0056   0.00    9.7
2218 460453   44.399813143    8.937673804   105.7513   1   8   0.0068   0.0045   0.0104   0.0016   0.0018  -0.0055   0.00    9.7
2218 460454   44.399813141    8.937673804   105.7544   1   8   0.0068   0.0045   0.0105   0.0026   0.0015  -0.0055   1.00    9.7
2218 460455   44.399813122    8.937673787   105.7516   1   8   0.0067   0.0044   0.0106   0.0023   0.0014  -0.0056   1.00    9.8
2218 460456   44.399813170    8.937673812   105.7547   1   8   0.0069   0.0047   0.0105   0.0024   0.0015  -0.0055   1.00    9.8
2218 460457   44.399813169    8.937673801   105.7547   1   8   0.0067   0.0045   0.0104   0.0019   0.0016  -0.0054   0.00    9.8
2218 460458   44.399813159    8.937673812   105.7548   1   8   0.0069   0.0045   0.0106   0.0023   0.0014  -0.0056   1.00    9.8
2218 460459   44.399813154    8.937673797   105.7567   1   8   0.0067   0.0046   0.0105   0.0021   0.0016  -0.0057   1.00    9.8
2218 460460   44.399813157    8.937673790   105.7515   1   8   0.0069   0.0046   0.0106   0.0019   0.0018  -0.0056   1.00    9.9
2218 460461   44.399813183    8.937673798   105.7524   1   8   0.0067   0.0047   0.0102   0.0025   0.0011  -0.0055   0.00    9.9
2218 460462   44.399813159    8.937673780   105.7538   1   8   0.0069   0.0043   0.0106   0.0016   0.0007  -0.0055   1.00    9.9
2218 460463   44.399813171    8.937673770   105.7465   1   8   0.0069   0.0048   0.0102   0.0025   0.0016  -0.0054   0.00    9.9
2218 460464   44.399813183    8.937673798   105.7469   1   8   0.0069   0.0047   0.0106   0.0016   0.0017  -0.0056   1.00    9.9
2218 460465   44.399813146    8.937673799   105.7514   1   8   0.0068   0.0043   0.0105   0.0020   0.0016  -0.0057   1.00    9.9
2218 460466   44.399813186    8.937673810   105.7500   1   8   0.0068   0.0045   0.0106   0.0016   0.0016  -0.0056   1.00    9.9
2218 460467   44.399813190    8.937673777   105.7485   1   8   0.0068   0.0045   0.0105   0.0019   0.0013  -0.0056   1.00    9.9
2218 460468   44.399813168    8.937673819   105.7537   1   8   0.0068   0.0045   0.0105   0.0020   0.0015  -0.0056   1.00    9.8
2218 460469   44.399813192    8.937673799   105.7489   1   8   0.0069   0.0045   0.0106   0.0021   0.0014  -0.0055   1.00    9.8
2218 460470   44.399813195    8.937673813   105.7482   1   8   0.0068   0.0047   0.0106   0.0019   0.0014  -0.0055   1.00    9.8
2218 460471   44.399813147    8.937673806   105.7565   1   8   0.0068   0.0043   0.0105   0.0020   0.0016  -0.0056   1.00    9.8
2218 460472   44.399813188    8.937673803   105.7475   1   8   0.0069   0.0043   0.0105   0.0019   0.0016  -0.0055   1.00    9.8
2218 460473   44.399813154    8.937673800   105.7520   1   8   0.0068   0.0048   0.0102   0.0021   0.0017  -0.0054   0.00    9.9
2218 460474   44.399813172    8.937673804   105.7560   1   8   0.0068   0.0045   0.0104   0.0022   0.0015  -0.0054   0.00    9.9
2218 460475   44.399813152    8.937673799   105.7509   1   8   0.0068   0.0044   0.0104   0.0024   0.0013  -0.0056   1.00    9.9
2218 460476   44.399813152    8.937673811   105.7526   1   8   0.0069   0.0048   0.0102   0.0020   0.0015  -0.0055   0.00    9.9
2218 460477   44.399813159    8.937673799   105.7527   1   8   0.0069   0.0048   0.0105   0.0021   0.0017  -0.0055   1.00    9.9
2218 460478   44.399813176    8.937673827   105.7532   1   8   0.0068   0.0047   0.0106   0.0023   0.0015  -0.0055   1.00    9.9
2218 460479   44.399813162    8.937673817   105.7531   1   8   0.0069   0.0047   0.0105   0.0023   0.0017  -0.0056   1.00    9.9
2218 460480   44.399813156    8.937673791   105.7504   1   8   0.0068   0.0046   0.0106   0.0023   0.0022  -0.0054   1.00    9.9
2218 460481   44.399813130    8.937673802   105.7524   1   8   0.0067   0.0043   0.0104   0.0019   0.0016  -0.0056   0.00    9.9
2218 460482   44.399813150    8.937673811   105.7512   1   8   0.0068   0.0047   0.0104   0.0016   0.0009  -0.0055   0.00    9.9
2218 460483   44.399813160    8.937673801   105.7498   1   8   0.0070   0.0047   0.0104   0.0022   0.0016  -0.0053   0.00    9.9
2218 460484   44.399813177    8.937673819   105.7491   1   8   0.0071   0.0048   0.0105   0.0022   0.0020  -0.0056   1.00    9.9
2218 460485   44.399813146    8.937673832   105.7514   1   8   0.0068   0.0043   0.0103   0.0025   0.0018  -0.0054   0.00    9.9
2218 460486   44.399813152    8.937673816   105.7517   1   8   0.0068   0.0045   0.0106   0.0017   0.0016  -0.0055   1.00    9.9
2218 460487   44.399813178    8.937673844   105.7529   1   8   0.0069   0.0046   0.0105   0.0019   0.0014  -0.0055   1.00   10.0
2218 460488   44.399813162    8.937673846   105.7559   1   8   0.0070   0.0044   0.0105   0.0021   0.0018  -0.0056   1.00   10.0
2218 460489   44.399813187    8.937673845   105.7507   1   8   0.0068   0.0046   0.0105   0.0018   0.0011  -0.0055   1.00   10.0
2218 460490   44.399813174    8.937673812   105.7472   1   8   0.0069   0.0045   0.0106   0.0021   0.0014  -0.0055   1.00   10.0
2218 460491   44.399813169    8.937673814   105.7503   1   8   0.0069   0.0048   0.0105   0.0023   0.0020  -0.0055   1.00   10.0
2218 460492   44.399813194    8.937673832   105.7505   1   8   0.0070   0.0045   0.0106   0.0021   0.0017  -0.0055   1.00   10.0
2218 460493   44.399813181    8.937673837   105.7502   1   8   0.0068   0.0044   0.0105   0.0018   0.0018  -0.0057   1.00   10.0
2218 460494   44.399813173    8.937673802   105.7476   1   8   0.0068   0.0046   0.0104   0.0023   0.0021  -0.0055   0.00   10.1
2218 460495   44.399813165    8.937673852   105.7512   1   8   0.0068   0.0046   0.0103   0.0026   0.0018  -0.0054   0.00   10.1
2218 460496   44.399813186    8.937673849   105.7493   1   8   0.0066   0.0046   0.0107   0.0012   0.0017  -0.0056   1.00   10.1
2218 460497   44.399813178    8.937673840   105.7503   1   8   0.0069   0.0044   0.0105   0.0024   0.0018  -0.0055   1.00   10.1
2218 460498   44.399813169    8.937673837   105.7518   1   8   0.0069   0.0044   0.0106   0.0020   0.0020  -0.0056   1.00   10.1
2218 460499   44.399813189    8.937673849   105.7480   1   8   0.0066   0.0045   0.0104   0.0018   0.0012  -0.0054   0.00   10.1
2218 460500   44.399813169    8.937673842   105.7498   1   8   0.0068   0.0050   0.0105   0.0021   0.0016  -0.0056   1.00   10.1
2218 460501   44.399813191    8.937673838   105.7508   1   8   0.0067   0.0044   0.0104   0.0021   0.0016  -0.0054   0.00   10.1
2218 460502   44.399813192    8.937673859   105.7521   1   8   0.0068   0.0044   0.0105   0.0023   0.0016  -0.0056   1.00   10.1
2218 460503   44.399813194    8.937673813   105.7497   1   8   0.0067   0.0044   0.0104   0.0015   0.0013  -0.0055   0.00   10.2
2218 460504   44.399813183    8.937673821   105.7523   1   8   0.0067   0.0046   0.0104   0.0018   0.0016  -0.0054   0.00   10.2
2218 460505   44.399813183    8.937673849   105.7536   1   8   0.0067   0.0044   0.0106   0.0017   0.0016  -0.0056   1.00   10.2
2218 460506   44.399813183    8.937673824   105.7502   1   8   0.0067   0.0045   0.0103   0.0023   0.0013  -0.0054   0.00   10.2
2218 460507   44.399813183    8.937673858   105.7553   1   8   0.0069   0.0046   0.0105   0.0021   0.0015  -0.0056   1.00   10.2
2218 460508   44.399813180    8.937673821   105.7507   1   8   0.0067   0.0047   0.0104   0.0019   0.0013  -0.0056   0.00   10.3
2218 460509   44.399813178    8.937673818   105.7502   1   8   0.0068   0.0047   0.0106   0.0023   0.0014  -0.0056   1.00   10.3
2218 460510   44.399813208    8.937673817   105.7490   1   8   0.0068   0.0043   0.0106   0.0018   0.0022  -0.0056   1.00   10.3
2218 460511   44.399813160    8.937673826   105.7515   1   8   0.0067   0.0044   0.0106   0.0021   0.0013  -0.0056   1.00   10.4
2218 460512   44.399813193    8.937673826   105.7465   1   8   0.0068   0.0048   0.0105   0.0022   0.0015  -0.0056   1.00   10.4
2218 460513   44.399813194    8.937673827   105.7555   1   8   0.0069   0.0047   0.0106   0.0023   0.0016  -0.0054   1.00   10.4
2218 460514   44.399813203    8.937673817   105.7485   1   8   0.0069   0.0045   0.0105   0.0019   0.0013  -0.0055   1.00   10.4
2218 460515   44.399813167    8.937673815   105.7471   1   8   0.0068   0.0045   0.0106   0.0023   0.0016  -0.0056   1.00   10.5
2218 460516   44.399813172    8.937673837   105.7564   1   8   0.0067   0.0043   0.0107   0.0014   0.0016  -0.0055   1.00   10.5
2218 460517   44.399813186    8.937673839   105.7523   1   8   0.0069   0.0049   0.0106   0.0019   0.0015  -0.0055   1.00   10.5
2218 460518   44.399813160    8.937673810   105.7528   1   8   0.0068   0.0042   0.0104   0.0021   0.0014  -0.0054   0.00   10.5
2218 460519   44.399813165    8.937673818   105.7527   1   8   0.0068   0.0045   0.0106   0.0020   0.0013  -0.0055   1.00   10.5
2218 460520   44.399813170    8.937673803   105.7515   1   8   0.0067   0.0045   0.0104   0.0022   0.0017  -0.0055   0.00   10.5
2218 460521   44.399813187    8.937673808   105.7485   1   8   0.0067   0.0045   0.0103   0.0021   0.0019  -0.0055   0.00   10.6
2218 460522   44.399813188    8.937673817   105.7517   1   8   0.0067   0.0046   0.0103   0.0027   0.0014  -0.0054   0.00   10.6
2218 460523   44.399813197    8.937673833   105.7500   1   8   0.0068   0.0045   0.0105   0.0020   0.0018  -0.0055   1.00   10.6
2218 460524   44.399813190    8.937673828   105.7480   1   8   0.0069   0.0049   0.0104   0.0024   0.0016  -0.0055   1.00   10.6
2218 460525   44.399813199    8.937673810   105.7465   1   8   0.0067   0.0042   0.0107   0.0017   0.0017  -0.0057   1.00   10.6
2218 460526   44.399813192    8.937673828   105.7535   1   8   0.0066   0.0042   0.0104   0.0021   0.0021  -0.0055   0.00   10.6
2218 460527   44.399813207    8.937673814   105.7514   1   8   0.0069   0.0047   0.0105   0.0024   0.0018  -0.0055   1.00   10.7
2218 460528   44.399813184    8.937673840   105.7572   1   8   0.0070   0.0045   0.0108   0.0022   0.0024  -0.0052   1.00    8.9
2218 460529   44.399813200    8.937673800   105.7471   1   8   0.0070   0.0047   0.0107   0.0024   0.0022  -0.0053   1.00    8.9
2218 460530   44.399813191    8.937673826   105.7521   1   8   0.0072   0.0049   0.0108   0.0025   0.0023  -0.0051   1.00    9.0
2218 460531   44.399813172    8.937673825   105.7563   1   8   0.0070   0.0047   0.0106   0.0024   0.0022  -0.0051   0.00    9.0
2218 460532   44.399813168    8.937673829   105.7556   1   8   0.0071   0.0048   0.0108   0.0025   0.0022  -0.0052   1.00    9.1
2218 460533   44.399813172    8.937673822   105.7506   1   8   0.0070   0.0046   0.0107   0.0023   0.0021  -0.0053   1.00    9.2
2218 460534   44.399813203    8.937673824   105.7478   1   8   0.0069   0.0045   0.0107   0.0019   0.0021  -0.0052   1.00    9.3
2218 460535   44.399813194    8.937673805   105.7526   1   8   0.0071   0.0047   0.0107   0.0021   0.0023  -0.0052   1.00    9.4
2218 460536   44.399813197    8.937673825   105.7505   1   8   0.0069   0.0046   0.0108   0.0026   0.0023  -0.0054   1.00    9.4
2218 460537   44.399813182    8.937673833   105.7527   1   8   0.0072   0.0046   0.0107   0.0026   0.0022  -0.0052   1.00    9.5
2218 460538   44.399813199    8.937673812   105.7521   1   8   0.0070   0.0048   0.0108   0.0023   0.0021  -0.0053   1.00    9.6
2218 460539   44.399813180    8.937673832   105.7509   1   8   0.0072   0.0049   0.0110   0.0027   0.0025  -0.0048   1.00    8.9
2218 460540   44.399813214    8.937673825   105.7475   1   8   0.0070   0.0049   0.0108   0.0027   0.0019  -0.0052   1.00    8.9
2218 460541   44.399813170    8.937673823   105.7475   1   8   0.0070   0.0046   0.0106   0.0025   0.0020  -0.0053   1.00    9.0
2218 460542   44.399813184    8.937673837   105.7469   1   8   0.0068   0.0042   0.0108   0.0022   0.0022  -0.0055   1.00    9.1
2218 460543   44.399813188    8.937673835   105.7489   1   8   0.0068   0.0044   0.0107   0.0018   0.0021  -0.0054   1.00    9.1
2218 460544   44.399813189    8.937673848   105.7511   1   8   0.0069   0.0046   0.0107   0.0023   0.0019  -0.0054   1.00    9.2
2218 460545   44.399813193    8.937673824   105.7490   1   8   0.0069   0.0048   0.0107   0.0024   0.0017  -0.0053   1.00    9.2
2218 460546   44.399813160    8.937673829   105.7500   1   8   0.0070   0.0050   0.0106   0.0023   0.0016  -0.0053   1.00    9.3
2218 460547   44.399813206    8.937673824   105.7442   1   8   0.0069   0.0048   0.0106   0.0021   0.0019  -0.0054   1.00    9.3
2218 460548   44.399813152    8.937673841   105.7502   1   8   0.0067   0.0047   0.0107   0.0020   0.0016  -0.0054   1.00    9.3
2218 460549   44.399813207    8.937673852   105.7481   1   8   0.0068   0.0047   0.0105   0.0024   0.0012  -0.0052   0.00    9.3
2218 460550   44.399813227    8.937673860   105.7473   1   8   0.0071   0.0048   0.0106   0.0023   0.0018  -0.0053   1.00    9.4
2218 460551   44.399813181    8.937673841   105.7482   1   8   0.0068   0.0046   0.0105   0.0024   0.0020  -0.0055   1.00    9.4
2218 460552   44.399813206    8.937673856   105.7467   1   8   0.0069   0.0047   0.0106   0.0023   0.0019  -0.0055   1.00    9.5
2218 460553   44.399813168    8.937673858   105.7464   1   8   0.0070   0.0048   0.0107   0.0024   0.0023  -0.0052   1.00    9.5
2218 460554   44.399813183    8.937673844   105.7482   1   8   0.0070   0.0050   0.0108   0.0024   0.0021  -0.0052   1.00    9.6
2218 460555   44.399813198    8.937673856   105.7544   1   7   0.0073   0.0048   0.0110   0.0029   0.0028  -0.0048   1.00    9.6
2218 460556   44.399813167    8.937673847   105.7560   1   7   0.0071   0.0050   0.0108   0.0028   0.0026  -0.0048   0.00    9.6
2218 460557   44.399813175    8.937673850   105.7536   1   7   0.0073   0.0047   0.0110   0.0029   0.0027  -0.0047   1.00    9.7
2218 460558   44.399813179    8.937673840   105.7502   1   7   0.0071   0.0047   0.0110   0.0027   0.0026  -0.0049   1.00    9.7
2218 460559   44.399813187    8.937673854   105.7518   1   7   0.0072   0.0049   0.0110   0.0029   0.0026  -0.0048   1.00    9.8
2218 460560   44.399813176    8.937673884   105.7565   1   7   0.0072   0.0047   0.0110   0.0027   0.0027  -0.0047   1.00    9.8
2218 460561   44.399813160    8.937673854   105.7552   1   7   0.0072   0.0050   0.0110   0.0030   0.0025  -0.0047   1.00    9.9
2218 460562   44.399813181    8.937673869   105.7488   1   7   0.0072   0.0045   0.0110   0.0030   0.0029  -0.0049   1.00    9.9
2218 460563   44.399813176    8.937673869   105.7581   1   7   0.0073   0.0047   0.0111   0.0030   0.0027  -0.0047   1.00   10.0
2218 460564   44.399813190    8.937673856   105.7517   1   7   0.0070   0.0046   0.0111   0.0026   0.0029  -0.0047   1.00   10.0
2218 460565   44.399813192    8.937673827   105.7578   1   7   0.0072   0.0049   0.0108   0.0027   0.0026  -0.0047   0.00   10.1
2218 460566   44.399813180    8.937673852   105.7540   1   7   0.0073   0.0050   0.0110   0.0031   0.0026  -0.0047   1.00   10.1
2218 460567   44.399813162    8.937673843   105.7511   1   7   0.0072   0.0051   0.0108   0.0027   0.0025  -0.0045   0.00   10.2
2218 460568   44.399813150    8.937673852   105.7541   1   7   0.0070   0.0045   0.0109   0.0026   0.0029  -0.0048   0.00   10.3
2218 460569   44.399813168    8.937673881   105.7512   1   7   0.0073   0.0050   0.0111   0.0028   0.0027  -0.0046   1.00   10.3
2218 460570   44.399813169    8.937673837   105.7508   1   7   0.0071   0.0049   0.0108   0.0028   0.0026  -0.0046   0.00   10.4
2218 460571   44.399813189    8.937673855   105.7521   1   7   0.0070   0.0049   0.0111   0.0028   0.0027  -0.0048   1.00   10.4
2218 460572   44.399813201    8.937673894   105.7524   1   7   0.0073   0.0050   0.0109   0.0029   0.0026  -0.0048   1.00   10.5
2218 460573   44.399813185    8.937673883   105.7542   1   7   0.0072   0.0046   0.0110   0.0031   0.0026  -0.0047   1.00   10.5
2218 460574   44.399813188    8.937673868   105.7485   1   7   0.0073   0.0047   0.0111   0.0024   0.0026  -0.0048   1.00   10.5
2218 460575   44.399813202    8.937673886   105.7569   1   7   0.0072   0.0046   0.0108   0.0031   0.0025  -0.0047   0.00   10.6
2218 460576   44.399813192    8.937673886   105.7580   1   7   0.0071   0.0048   0.0111   0.0024   0.0027  -0.0048   1.00   10.6
2218 460577   44.399813176    8.937673860   105.7572   1   7   0.0070   0.0048   0.0109   0.0029   0.0025  -0.0045   0.00   10.6
2218 460578   44.399813173    8.937673848   105.7544   1   7   0.0071   0.0046   0.0109   0.0030   0.0029  -0.0047   0.00   10.6
2218 460579   44.399813190    8.937673868   105.7552   1   7   0.0071   0.0048   0.0109   0.0026   0.0027  -0.0047   0.00   10.7
2218 460580   44.399813182    8.937673853   105.7534   1   7   0.0072   0.0048   0.0107   0.0028   0.0026  -0.0046   0.00   10.7
2218 460581   44.399813182    8.937673865   105.7543   1   7   0.0072   0.0051   0.0111   0.0030   0.0026  -0.0048   1.00   10.8
2218 460582   44.399813177    8.937673867   105.7558   1   7   0.0072   0.0046   0.0110   0.0027   0.0025  -0.0048   1.00   10.8
2218 460583   44.399813193    8.937673877   105.7559   1   7   0.0072   0.0047   0.0110   0.0028   0.0028  -0.0048   1.00   10.8
2218 460584   44.399813187    8.937673850   105.7572   1   7   0.0072   0.0049   0.0110   0.0026   0.0028  -0.0048   1.00   10.9
2218 460585   44.399813154    8.937673844   105.7566   1   7   0.0072   0.0043   0.0111   0.0026   0.0030  -0.0047   1.00   10.9
2218 460586   44.399813186    8.937673873   105.7558   1   7   0.0072   0.0048   0.0111   0.0027   0.0027  -0.0047   1.00   11.0
2218 460587   44.399813189    8.937673883   105.7568   1   7   0.0071   0.0048   0.0111   0.0028   0.0028  -0.0047   1.00   11.0
2218 460588   44.399813174    8.937673859   105.7564   1   7   0.0072   0.0047   0.0111   0.0026   0.0029  -0.0047   1.00   11.1
2218 460589   44.399813183    8.937673834   105.7581   1   7   0.0072   0.0047   0.0109   0.0031   0.0025  -0.0047   0.00   11.1
2218 460590   44.399813192    8.937673857   105.7531   1   7   0.0071   0.0049   0.0110   0.0029   0.0029  -0.0047   1.00   11.2
2218 460591   44.399813184    8.937673871   105.7567   1   7   0.0072   0.0049   0.0111   0.0028   0.0026  -0.0048   1.00   11.2
2218 460592   44.399813189    8.937673851   105.7618   1   7   0.0072   0.0049   0.0110   0.0027   0.0029  -0.0047   1.00   11.3
2218 460593   44.399813195    8.937673863   105.7622   1   7   0.0072   0.0049   0.0110   0.0026   0.0026  -0.0047   1.00   11.3
2218 460594   44.399813129    8.937673861   105.7632   1   7   0.0071   0.0047   0.0108   0.0030   0.0027  -0.0046   0.00   11.4
2218 460595   44.399813182    8.937673869   105.7645   1   7   0.0071   0.0047   0.0110   0.0030   0.0027  -0.0047   1.00   11.5
2218 460596   44.399813182    8.937673857   105.7620   1   7   0.0071   0.0046   0.0111   0.0026   0.0029  -0.0048   1.00   11.6
2218 460597   44.399813172    8.937673849   105.7651   1   7   0.0070   0.0048   0.0109   0.0026   0.0026  -0.0047   0.00   11.6
2218 460598   44.399813174    8.937673853   105.7613   1   7   0.0072   0.0048   0.0111   0.0028   0.0027  -0.0047   1.00   11.7
2218 460599   44.399813183    8.937673844   105.7571   1   7   0.0070   0.0044   0.0108   0.0027   0.0027  -0.0046   0.00   11.8
2218 460600   44.399813172    8.937673846   105.7575   1   7   0.0072   0.0049   0.0111   0.0029   0.0026  -0.0047   1.00   11.8
2218 460601   44.399813165    8.937673851   105.7594   1   7   0.0072   0.0049   0.0111   0.0028   0.0027  -0.0046   1.00   11.8
2218 460602   44.399813187    8.937673841   105.7617   1   7   0.0071   0.0048   0.0109   0.0027   0.0025  -0.0047   0.00   11.9
2218 460603   44.399813171    8.937673855   105.7617   1   7   0.0072   0.0049   0.0111   0.0026   0.0028  -0.0047   1.00   11.9
2218 460604   44.399813172    8.937673860   105.7600   1   7   0.0073   0.0048   0.0111   0.0027   0.0030  -0.0047   1.00   12.0
2218 460605   44.399813169    8.937673845   105.7639   1   7   0.0072   0.0046   0.0111   0.0028   0.0028  -0.0047   1.00   12.1
2218 460606   44.399813158    8.937673864   105.7614   1   7   0.0072   0.0051   0.0111   0.0029   0.0025  -0.0048   1.00   12.1
2218 460607   44.399813162    8.937673868   105.7657   1   7   0.0071   0.0050   0.0111   0.0027   0.0025  -0.0047   1.00   12.2
2218 460608   44.399813175    8.937673848   105.7549   1   7   0.0070   0.0046   0.0109   0.0027   0.0026  -0.0046   0.00   12.3
2218 460609   44.399813199    8.937673850   105.7556   1   7   0.0072   0.0047   0.0111   0.0030   0.0029  -0.0047   1.00   12.4
2218 460610   44.399813180    8.937673866   105.7575   1   7   0.0072   0.0049   0.0111   0.0030   0.0028  -0.0048   1.00   12.4
2218 460611   44.399813167    8.937673853   105.7606   1   7   0.0070   0.0046   0.0109   0.0028   0.0029  -0.0047   0.00   12.5
2218 460612   44.399813166    8.937673847   105.7636   1   7   0.0071   0.0047   0.0111   0.0027   0.0029  -0.0048   1.00   12.5
2218 460613   44.399813155    8.937673874   105.7601   1   7   0.0072   0.0046   0.0111   0.0028   0.0029  -0.0047   1.00   12.6
2218 460614   44.399813147    8.937673846   105.7564   1   7   0.0072   0.0050   0.0110   0.0028   0.0028  -0.0049   1.00   12.7
2218 460615   44.399813160    8.937673846   105.7620   1   7   0.0073   0.0051   0.0110   0.0028   0.0027  -0.0048   1.00   12.7
2218 460616   44.399813132    8.937673845   105.7584   1   7   0.0072   0.0046   0.0111   0.0027   0.0027  -0.0048   1.00   12.8
2218 460617   44.399813108    8.937673827   105.7556   1   7   0.0070   0.0049   0.0109   0.0025   0.0026  -0.0045   0.00   12.9
2218 460618   44.399813151    8.937673822   105.7568   1   7   0.0070   0.0047   0.0109   0.0025   0.0025  -0.0045   0.00   13.0
2218 460619   44.399813144    8.937673847   105.7602   1   7   0.0072   0.0050   0.0111   0.0028   0.0028  -0.0047   1.00   13.1
2218 460620   44.399813145    8.937673834   105.7559   1   7   0.0072   0.0049   0.0110   0.0031   0.0025  -0.0047   1.00   13.2
2218 460621   44.399813133    8.937673830   105.7580   1   7   0.0072   0.0049   0.0111   0.0026   0.0027  -0.0047   1.00   13.2
2218 460622   44.399813160    8.937673858   105.7584   1   7   0.0071   0.0048   0.0110   0.0029   0.0027  -0.0047   1.00   13.3
2218 460623   44.399813134    8.937673846   105.7538   1   7   0.0072   0.0048   0.0111   0.0030   0.0026  -0.0047   1.00   13.4
2218 460624   44.399813146    8.937673852   105.7613   1   7   0.0071   0.0047   0.0111   0.0022   0.0027  -0.0047   1.00   13.5
2218 460625   44.399813150    8.937673826   105.7605   1   7   0.0070   0.0049   0.0109   0.0029   0.0027  -0.0046   0.00   13.5
2218 460626   44.399813157    8.937673812   105.7568   1   7   0.0072   0.0047   0.0111   0.0027   0.0027  -0.0048   1.00   13.5
2218 460627   44.399813148    8.937673848   105.7596   1   7   0.0071   0.0045   0.0111   0.0029   0.0028  -0.0048   1.00   13.6
2218 460628   44.399813157    8.937673836   105.7574   1   7   0.0072   0.0047   0.0111   0.0031   0.0028  -0.0047   1.00   13.6
2218 460629   44.399813127    8.937673832   105.7552   1   7   0.0071   0.0049   0.0111   0.0027   0.0028  -0.0047   1.00   13.6
2218 460630   44.399813167    8.937673854   105.7619   1   7   0.0071   0.0046   0.0112   0.0026   0.0029  -0.0048   1.00   13.6
2218 460631   44.399813154    8.937673827   105.7601   1   7   0.0071   0.0048   0.0111   0.0029   0.0028  -0.0047   1.00   13.6
2218 460632   44.399813171    8.937673818   105.7581   1   7   0.0072   0.0052   0.0111   0.0029   0.0029  -0.0048   1.00   13.6
2218 460633   44.399813163    8.937673829   105.7592   1   7   0.0070   0.0047   0.0109   0.0025   0.0028  -0.0046   0.00   13.6
2218 460634   44.399813150    8.937673847   105.7619   1   7   0.0072   0.0049   0.0111   0.0030   0.0026  -0.0047   1.00   13.6
2218 460635   44.399813163    8.937673825   105.7581   1   7   0.0070   0.0045   0.0111   0.0028   0.0029  -0.0047   1.00   13.6
2218 460636   44.399813141    8.937673819   105.7645   1   7   0.0070   0.0045   0.0109   0.0029   0.0029  -0.0046   0.00   13.6
2218 460637   44.399813119    8.937673812   105.7617   1   7   0.0071   0.0047   0.0111   0.0028   0.0028  -0.0047   1.00   13.7
2218 460638   44.399813171    8.937673821   105.7614   1   7   0.0071   0.0048   0.0111   0.0028   0.0028  -0.0046   1.00   13.6
2218 460639   44.399813154    8.937673812   105.7577   1   7   0.0072   0.0047   0.0111   0.0025   0.0029  -0.0047   1.00   13.7
2218 460640   44.399813187    8.937673814   105.7609   1   7   0.0072   0.0050   0.0110   0.0030   0.0027  -0.0047   1.00   13.7
2218 460641   44.399813168    8.937673828   105.7620   1   7   0.0072   0.0046   0.0111   0.0030   0.0028  -0.0047   1.00   13.6
2218 460642   44.399813156    8.937673824   105.7563   1   7   0.0072   0.0048   0.0112   0.0026   0.0028  -0.0047   1.00   13.6
2218 460643   44.399813154    8.937673811   105.7588   1   7   0.0072   0.0050   0.0111   0.0030   0.0027  -0.0047   1.00   13.7
2218 460644   44.399813150    8.937673818   105.7542   1   7   0.0071   0.0048   0.0109   0.0027   0.0027  -0.0045   0.00   13.7
2218 460645   44.399813164    8.937673820   105.7570   1   7   0.0071   0.0048   0.0111   0.0030   0.0029  -0.0047   1.00   13.7
2218 460646   44.399813179    8.937673809   105.7569   1   7   0.0072   0.0051   0.0111   0.0030   0.0027  -0.0046   1.00   13.7
2218 460647   44.399813168    8.937673803   105.7601   1   7   0.0071   0.0050   0.0111   0.0027   0.0027  -0.0048   1.00   13.7
2218 460648   44.399813182    8.937673820   105.7538   1   7   0.0071   0.0049   0.0111   0.0027   0.0026  -0.0046   1.00   13.7
2218 460649   44.399813168    8.937673809   105.7583   1   7   0.0071   0.0049   0.0111   0.0028   0.0029  -0.0048   1.00   13.7
2218 460650   44.399813169    8.937673830   105.7568   1   7   0.0071   0.0047   0.0111   0.0026   0.0029  -0.0047   1.00   13.7
2218 460651   44.399813169    8.937673798   105.7558   1   7   0.0071   0.0046   0.0111   0.0027   0.0028  -0.0047   1.00   13.7
2218 460652   44.399813171    8.937673802   105.7530   1   7   0.0071   0.0048   0.0111   0.0029   0.0027  -0.0047   1.00   13.7
2218 460653   44.399813150    8.937673814   105.7583   1   7   0.0070   0.0048   0.0109   0.0028   0.0027  -0.0047   0.00   13.6
2218 460654   44.399813151    8.937673813   105.7612   1   7   0.0070   0.0046   0.0111   0.0025   0.0029  -0.0048   1.00   13.6
2218 460655   44.399813148    8.937673809   105.7554   1   7   0.0072   0.0049   0.0111   0.0032   0.0027  -0.0047   1.00   13.6
2218 460656   44.399813153    8.937673825   105.7564   1   7   0.0069   0.0049   0.0109   0.0027   0.0026  -0.0046   0.00   13.6
2218 460657   44.399813149    8.937673815   105.7588   1   7   0.0071   0.0046   0.0112   0.0026   0.0029  -0.0047   1.00   13.6
2218 460658   44.399813162    8.937673809   105.7552   1   7   0.0072   0.0050   0.0111   0.0031   0.0026  -0.0047   1.00   13.6
2218 460659   44.399813195    8.937673818   105.7554   1   7   0.0071   0.0047   0.0111   0.0027   0.0029  -0.0046   1.00   13.6
2218 460660   44.399813176    8.937673811   105.7551   1   7   0.0072   0.0047   0.0111   0.0027   0.0029  -0.0047   1.00   13.6
2218 460661   44.399813138    8.937673811   105.7542   1   7   0.0071   0.0047   0.0110   0.0030   0.0029  -0.0047   1.00   13.6
2218 460662   44.399813154    8.937673820   105.7569   1   7   0.0072   0.0050   0.0112   0.0028   0.0027  -0.0047   1.00   13.6
2218 460663   44.399813208    8.937673829   105.7525   1   7   0.0071   0.0049   0.0111   0.0027   0.0026  -0.0047   1.00   13.6
2218 460664   44.399813180    8.937673797   105.7532   1   7   0.0071   0.0050   0.0111   0.0029   0.0029  -0.0048   1.00   13.6
2218 460665   44.399813146    8.937673814   105.7554   1   7   0.0070   0.0047   0.0111   0.0028   0.0029  -0.0048   1.00   13.6
2218 460666   44.399813170    8.937673821   105.7506   1   7   0.0070   0.0048   0.0112   0.0028   0.0028  -0.0048   1.00   13.7
2218 460667   44.399813166    8.937673803   105.7545   1   7   0.0070   0.0048   0.0111   0.0029   0.0026  -0.0047   1.00   13.7
2218 460668   44.399813143    8.937673803   105.7513   1   7   0.0070   0.0047   0.0109   0.0026   0.0029  -0.0046   0.00   13.7
2218 460669   44.399813158    8.937673806   105.7510   1   7   0.0070   0.0047   0.0112   0.0027   0.0029  -0.0046   1.00   13.7
2218 460670   44.399813161    8.937673809   105.7553   1   7   0.0071   0.0050   0.0111   0.0028   0.0025  -0.0047   1.00   13.8
2218 460671   44.399813129    8.937673790   105.7462   1   7   0.0069   0.0046   0.0109   0.0024   0.0029  -0.0046   0.00   13.8
2218 460672   44.399813163    8.937673818   105.7533   1   7   0.0070   0.0046   0.0109   0.0026   0.0028  -0.0045   0.00   13.9
2218 460673   44.399813152    8.937673826   105.7519   1   7   0.0071   0.0049   0.0111   0.0029   0.0027  -0.0047   1.00   13.9
2218 460674   44.399813149    8.937673811   105.7461   1   7   0.0071   0.0049   0.0111   0.0032   0.0028  -0.0047   1.00   13.9
2218 460675   44.399813148    8.937673808   105.7537   1   7   0.0070   0.0047   0.0111   0.0028   0.0029  -0.0048   1.00   13.9
2218 460676   44.399813178    8.937673802   105.7480   1   7   0.0071   0.0048   0.0111   0.0029   0.0029  -0.0047   1.00   14.0
2218 460677   44.399813158    8.937673795   105.7496   1   7   0.0071   0.0048   0.0111   0.0030   0.0028  -0.0046   1.00   14.0
2218 460678   44.399813178    8.937673798   105.7528   1   7   0.0070   0.0049   0.0111   0.0025   0.0029  -0.0048   1.00   14.0
2218 460679   44.399813174    8.937673805   105.7453   1   7   0.0071   0.0047   0.0112   0.0029   0.0027  -0.0047   1.00   14.1
2218 460680   44.399813185    8.937673816   105.7473   1   7   0.0072   0.0049   0.0111   0.0026   0.0027  -0.0048   1.00   14.1
2218 460681   44.399813183    8.937673818   105.7507   1   7   0.0071   0.0048   0.0111   0.0028   0.0027  -0.0047   1.00   14.1
2218 460682   44.399813172    8.937673801   105.7442   1   7   0.0071   0.0049   0.0111   0.0028   0.0025  -0.0046   1.00   14.2
2218 460683   44.399813172    8.937673806   105.7457   1   7   0.0069   0.0045   0.0109   0.0024   0.0030  -0.0046   0.00   14.2
2218 460684   44.399813159    8.937673816   105.7445   1   7   0.0070   0.0047   0.0111   0.0028   0.0029  -0.0047   1.00   14.3
2218 460685   44.399813176    8.937673819   105.7428   1   7   0.0071   0.0048   0.0111   0.0028   0.0029  -0.0047   1.00   14.4
2218 460686   44.399813198    8.937673817   105.7485   1   7   0.0071   0.0047   0.0111   0.0029   0.0029  -0.0046   1.00   14.4
2218 460687   44.399813185    8.937673823   105.7457   1   7   0.0071   0.0050   0.0111   0.0030   0.0027  -0.0046   1.00   14.4
2218 460688   44.399813195    8.937673830   105.7517   1   7   0.0071   0.0049   0.0112   0.0026   0.0027  -0.0046   1.00   14.4
2218 460689   44.399813179    8.937673817   105.7465   1   7   0.0071   0.0048   0.0111   0.0030   0.0030  -0.0046   1.00   14.5
2218 460690   44.399813201    8.937673813   105.7529   1   7   0.0070   0.0048   0.0112   0.0026   0.0028  -0.0047   1.00   14.5
2218 460691   44.399813205    8.937673814   105.7447   1   7   0.0070   0.0050   0.0111   0.0029   0.0028  -0.0047   1.00   14.5
2218 460692   44.399813181    8.937673803   105.7521   1   7   0.0071   0.0049   0.0112   0.0029   0.0029  -0.0046   1.00   14.5
2218 460693   44.399813215    8.937673802   105.7482   1   7   0.0071   0.0045   0.0110   0.0029   0.0029  -0.0046   0.00   14.5
2218 460694   44.399813188    8.937673807   105.7452   1   7   0.0068   0.0046   0.0110   0.0027   0.0028  -0.0046   0.00   14.6
2218 460695   44.399813207    8.937673789   105.7473   1   7   0.0074   0.0047   0.0115   0.0029   0.0031  -0.0039   1.00   13.3
2218 460696   44.399813198    8.937673783   105.7484   1   7   0.0075   0.0048   0.0115   0.0031   0.0031  -0.0039   1.00   13.4
2218 460697   44.399813200    8.937673793   105.7504   1   7   0.0074   0.0048   0.0115   0.0028   0.0030  -0.0040   1.00   13.3
2218 460698   44.399813203    8.937673786   105.7491   1   7   0.0075   0.0050   0.0115   0.0030   0.0029  -0.0038   1.00   13.4
2218 460699   44.399813200    8.937673781   105.7460   1   7   0.0073   0.0048   0.0115   0.0031   0.0031  -0.0040   1.00   13.3
2218 460700   44.399813210    8.937673791   105.7549   1   7   0.0075   0.0050   0.0114   0.0032   0.0029  -0.0040   1.00   13.4
2218 460701   44.399813178    8.937673776   105.7492   1   7   0.0074   0.0049   0.0113   0.0029   0.0028  -0.0039   0.00   13.4
2218 460702   44.399813198    8.937673765   105.7468   1   7   0.0074   0.0050   0.0115   0.0027   0.0030  -0.0039   1.00   13.4
2218 460703   44.399813202    8.937673775   105.7524   1   7   0.0074   0.0048   0.0115   0.0031   0.0030  -0.0039   1.00   13.4
2218 460704   44.399813180    8.937673787   105.7537   1   7   0.0074   0.0050   0.0115   0.0028   0.0030  -0.0039   1.00   13.4
2218 460705   44.399813221    8.937673788   105.7545   1   7   0.0074   0.0048   0.0115   0.0030   0.0030  -0.0040   1.00   13.4
2218 460706   44.399813197    8.937673793   105.7486   1   7   0.0074   0.0047   0.0115   0.0030   0.0030  -0.0040   1.00   13.4
2218 460707   44.399813172    8.937673765   105.7559   1   7   0.0075   0.0047   0.0115   0.0029   0.0029  -0.0040   1.00   13.5
2218 460708   44.399813200    8.937673785   105.7528   1   7   0.0075   0.0050   0.0115   0.0032   0.0029  -0.0038   1.00   13.5
2218 460709   44.399813188    8.937673785   105.7549   1   7   0.0073   0.0049   0.0113   0.0030   0.0031  -0.0039   0.00   13.5
2218 460710   44.399813205    8.937673804   105.7514   1   7   0.0075   0.0050   0.0115   0.0031   0.0030  -0.0039   1.00   13.5
2218 460711   44.399813211    8.937673777   105.7500   1   7   0.0074   0.0047   0.0115   0.0031   0.0031  -0.0039   1.00   13.5
2218 460712   44.399813196    8.937673776   105.7446   1   7   0.0074   0.0046   0.0115   0.0029   0.0031  -0.0039   1.00   13.6
2218 460713   44.399813197    8.937673779   105.7492   1   7   0.0074   0.0050   0.0115   0.0032   0.0031  -0.0039   1.00   13.6
2218 460714   44.399813199    8.937673780   105.7545   1   7   0.0074   0.0049   0.0115   0.0029   0.0030  -0.0039   1.00   13.6
2218 460715   44.399813197    8.937673790   105.7523   1   7   0.0072   0.0047   0.0115   0.0033   0.0033  -0.0040   1.00   13.6
2218 460716   44.399813186    8.937673785   105.7516   1   7   0.0072   0.0049   0.0113   0.0029   0.0029  -0.0039   0.00   13.6
2218 460717   44.399813202    8.937673790   105.7537   1   7   0.0073   0.0050   0.0115   0.0030   0.0031  -0.0040   1.00   13.7
2218 460718   44.399813183    8.937673779   105.7503   1   7   0.0073   0.0048   0.0113   0.0030   0.0029  -0.0038   0.00   13.7
2218 460719   44.399813196    8.937673789   105.7525   1   7   0.0074   0.0049   0.0115   0.0031   0.0030  -0.0039   1.00   13.7
2218 460720   44.399813205    8.937673779   105.7458   1   7   0.0073   0.0049   0.0115   0.0029   0.0031  -0.0039   1.00   13.7
2218 460721   44.399813207    8.937673781   105.7505   1   7   0.0074   0.0049   0.0115   0.0034   0.0029  -0.0040   1.00   13.8
2218 460722   44.399813208    8.937673805   105.7485   1   7   0.0074   0.0048   0.0115   0.0030   0.0031  -0.0039   1.00   13.8
2218 460723   44.399813199    8.937673784   105.7478   1   7   0.0074   0.0048   0.0115   0.0031   0.0031  -0.0039   1.00   13.8
2218 460724   44.399813214    8.937673798   105.7473   1   7   0.0073   0.0051   0.0115   0.0029   0.0029  -0.0038   1.00   13.8
2218 460725   44.399813218    8.937673796   105.7482   1   7   0.0073   0.0046   0.0115   0.0030   0.0032  -0.0038   1.00   13.8
2218 460726   44.399813210    8.937673779   105.7443   1   7   0.0074   0.0048   0.0115   0.0031   0.0031  -0.0040   1.00   13.8
2218 460727   44.399813206    8.937673781   105.7477   1   7   0.0073   0.0046   0.0115   0.0030   0.0031  -0.0040   1.00   13.9
2218 460728   44.399813193    8.937673750   105.7446   1   7   0.0074   0.0046   0.0115   0.0029   0.0031  -0.0038   1.00   13.9
2218 460729   44.399813227    8.937673772   105.7460   1   7   0.0072   0.0047   0.0113   0.0028   0.0029  -0.0039   0.00   13.9
2218 460730   44.399813208    8.937673788   105.7474   1   7   0.0073   0.0048   0.0116   0.0031   0.0032  -0.0037   1.00   13.9
2218 460731   44.399813213    8.937673772   105.7472   1   7   0.0073   0.0048   0.0115   0.0028   0.0031  -0.0039   1.00   14.0
2218 460732   44.399813227    8.937673789   105.7461   1   7   0.0074   0.0048   0.0115   0.0027   0.0033  -0.0040   1.00   14.0
2218 460733   44.399813191    8.937673766   105.7480   1   7   0.0073   0.0048   0.0115   0.0031   0.0030  -0.0039   1.00   14.0
2218 460734   44.399813220    8.937673761   105.7470   1   7   0.0079   0.0046   0.0119   0.0033   0.0031  -0.0016   0.00    9.9
2218 460735   44.399813221    8.937673753   105.7475   1   7   0.0075   0.0047   0.0117   0.0030   0.0032  -0.0036   1.00    9.9
2218 460736   44.399813220    8.937673779   105.7470   1   7   0.0074   0.0049   0.0114   0.0032   0.0028  -0.0040   1.00    9.9
2218 460737   44.399813225    8.937673794   105.7469   1   7   0.0071   0.0043   0.0112   0.0028   0.0029  -0.0040   0.00    9.9
2218 460738   44.399813215    8.937673772   105.7533   1   7   0.0071   0.0050   0.0112   0.0027   0.0029  -0.0041   0.00    9.9
2218 460739   44.399813221    8.937673786   105.7536   1   7   0.0071   0.0048   0.0112   0.0025   0.0027  -0.0042   0.00   10.0
2218 460740   44.399813228    8.937673785   105.7515   1   7   0.0071   0.0047   0.0113   0.0024   0.0031  -0.0043   1.00   10.0
2218 460741   44.399813215    8.937673779   105.7518   1   7   0.0072   0.0050   0.0113   0.0029   0.0028  -0.0045   1.00   10.0
2218 460742   44.399813196    8.937673774   105.7536   1   7   0.0070   0.0046   0.0113   0.0026   0.0029  -0.0045   1.00   10.0
2218 460743   44.399813220    8.937673780   105.7512   1   7   0.0072   0.0050   0.0113   0.0029   0.0028  -0.0043   1.00   10.0
2218 460744   44.399813215    8.937673799   105.7576   1   7   0.0070   0.0045   0.0113   0.0027   0.0028  -0.0044   1.00   10.0
2218 460745   44.399813206    8.937673782   105.7538   1   7   0.0070   0.0048   0.0113   0.0029   0.0030  -0.0044   1.00   10.0
2218 460746   44.399813216    8.937673784   105.7486   1   7   0.0070   0.0047   0.0113   0.0025   0.0028  -0.0046   1.00    3.3
2218 460747   44.399813213    8.937673771   105.7445   1   7   0.0070   0.0049   0.0112   0.0028   0.0028  -0.0047   1.00    3.5
2218 460748   44.399813195    8.937673782   105.7480   1   7   0.0071   0.0051   0.0112   0.0025   0.0029  -0.0047   1.00    3.7
2218 460749   44.399813220    8.937673784   105.7535   1   7   0.0070   0.0047   0.0113   0.0027   0.0029  -0.0046   1.00    3.9
2218 460750   44.399813219    8.937673800   105.7500   1   7   0.0070   0.0050   0.0112   0.0028   0.0026  -0.0046   1.00    4.0
2218 460751   44.399813234    8.937673805   105.7520   1   7   0.0068   0.0049   0.0111   0.0028   0.0027  -0.0045   0.00    4.2
2218 460752   44.399813191    8.937673768   105.7483   1   7   0.0069   0.0047   0.0110   0.0025   0.0028  -0.0045   0.00    4.4
2218 460753   44.399813205    8.937673758   105.7494   1   7   0.0070   0.0049   0.0112   0.0027   0.0028  -0.0046   1.00    4.6
2218 460754   44.399813212    8.937673796   105.7503   1   7   0.0071   0.0051   0.0113   0.0027   0.0027  -0.0046   1.00    4.8
2218 460755   44.399813191    8.937673804   105.7434   1   7   0.0070   0.0050   0.0112   0.0028   0.0029  -0.0047   1.00    5.0
2218 460756   44.399813206    8.937673794   105.7488   1   7   0.0070   0.0049   0.0112   0.0029   0.0029  -0.0046   1.00    5.2
2218 460757   44.399813207    8.937673792   105.7494   1   7   0.0069   0.0051   0.0112   0.0030   0.0026  -0.0045   1.00    5.4
2218 460758   44.399813202    8.937673803   105.7515   1   7   0.0069   0.0050   0.0113   0.0028   0.0029  -0.0046   1.00    5.6
2218 460759   44.399813201    8.937673800   105.7485   1   7   0.0069   0.0048   0.0111   0.0027   0.0029  -0.0045   0.00    5.8
2218 460760   44.399813220    8.937673791   105.7520   1   7   0.0070   0.0047   0.0112   0.0025   0.0030  -0.0048   1.00    6.0
2218 460761   44.399813182    8.937673802   105.7451   1   7   0.0068   0.0047   0.0110   0.0031   0.0028  -0.0045   0.00    6.2
2218 460762   44.399813201    8.937673822   105.7520   1   7   0.0070   0.0049   0.0112   0.0029   0.0028  -0.0047   1.00    6.4
2218 460763   44.399813238    8.937673795   105.7475   1   7   0.0069   0.0047   0.0112   0.0028   0.0030  -0.0046   1.00    6.6
2218 460764   44.399813203    8.937673778   105.7481   1   7   0.0069   0.0049   0.0110   0.0028   0.0027  -0.0045   0.00    6.8
2218 460765   44.399813187    8.937673795   105.7528   1   7   0.0070   0.0046   0.0112   0.0029   0.0030  -0.0047   1.00    7.0
2218 460766   44.399813222    8.937673796   105.7499   1   7   0.0069   0.0047   0.0113   0.0024   0.0031  -0.0046   1.00    7.2
2218 460767   44.399813197    8.937673821   105.7492   1   7   0.0070   0.0048   0.0112   0.0030   0.0028  -0.0047   1.00    7.4
2218 460768   44.399813204    8.937673802   105.7512   1   7   0.0070   0.0047   0.0112   0.0027   0.0029  -0.0047   1.00    7.6
2218 460769   44.399813211    8.937673842   105.7512   1   7   0.0070   0.0050   0.0112   0.0029   0.0027  -0.0045   1.00    7.8
2218 460770   44.399813204    8.937673813   105.7522   1   7   0.0069   0.0044   0.0113   0.0029   0.0030  -0.0045   1.00    8.0
2218 460771   44.399813188    8.937673811   105.7508   1   7   0.0070   0.0049   0.0113   0.0029   0.0029  -0.0046   1.00    8.2
2218 460772   44.399813190    8.937673805   105.7469   1   7   0.0069   0.0047   0.0112   0.0029   0.0029  -0.0047   1.00    8.4
2218 460773   44.399813215    8.937673809   105.7509   1   7   0.0069   0.0048   0.0112   0.0027   0.0030  -0.0046   1.00    8.6
2218 460774   44.399813205    8.937673820   105.7525   1   7   0.0071   0.0048   0.0112   0.0029   0.0028  -0.0045   1.00    8.8
2218 460775   44.399813218    8.937673788   105.7486   1   7   0.0070   0.0047   0.0113   0.0024   0.0029  -0.0047   1.00    9.0
2218 460776   44.399813206    8.937673793   105.7483   1   7   0.0069   0.0045   0.0112   0.0028   0.0029  -0.0046   1.00    9.2
2218 460777   44.399813239    8.937673818   105.7487   1   7   0.0069   0.0045   0.0112   0.0028   0.0030  -0.0046   1.00    9.4
2218 460778   44.399813220    8.937673818   105.7491   1   7   0.0069   0.0045   0.0113   0.0027   0.0029  -0.0046   1.00    9.6
2218 460779   44.399813248    8.937673841   105.7516   1   7   0.0070   0.0050   0.0112   0.0029   0.0026  -0.0046   1.00    9.8
2218 460780   44.399813184    8.937673794   105.7460   1   7   0.0069   0.0049   0.0112   0.0026   0.0026  -0.0046   1.00   10.0
