%  GPST       latitude(deg) longitude(deg)  height(m)   Q  ns   sdn(m)   sde(m)   sdu(m)  sdne(m)  sdeu(m)  sdun(m) age(s)  ratio
2218 460329   44.399816963    8.937599032   111.3941   6   4   8.4701  29.3852  20.7797   7.5358 -22.8272  -5.1087   0.00    0.0
2218 460330   44.399819073    8.937574333   112.3666   6   4   6.0782  22.8569  16.0280   5.8407 -17.9021  -4.0839   0.00    0.0
2218 460331   44.399818991    8.937574598   112.1904   6   4   4.9928  19.3309  13.5191   4.9275 -15.1812  -3.4792   0.00    0.0
2218 460332   44.399818346    8.937580627   111.9284   6   4   4.3395  17.0704  11.9212   4.3373 -13.4242  -3.0765   0.00    0.0
2218 460333   44.399819017    8.937579248   111.9090   6   4   3.8912  15.4716  10.7941   3.9170 -12.1773  -2.7857   0.00    0.0
2218 460334   44.399819548    8.937578764   111.9359   6   4   3.5592  14.2634   9.9445   3.5982 -11.2333  -2.5633   0.00    0.0
2218 460335   44.399818641    8.937582129   111.7221   6   4   3.3007  13.3116   9.2762   3.3453 -10.4888  -2.3858   0.00    0.0
2218 460336   44.399817855    8.937580546   111.8525   6   4   3.0920  12.5392   8.7342   3.1378  -9.8844  -2.2394   0.00    0.0
2218 460337   44.399817433    8.937576161   112.0687   6   4   2.9191  11.8957   8.2829   2.9634  -9.3805  -2.1159   0.00    0.0
2218 460338   44.399816582    8.937575376   112.0788   6   4   2.7727  11.3475   7.8987   2.8141  -8.9510  -2.0097   0.00    0.0
2218 460339   44.399816004    8.937568702   112.3449   6   4   2.6468  10.8726   7.5661   2.6843  -8.5788  -1.9172   0.00    0.0
2218 460340   44.399815773    8.937561587   112.6515   6   4   2.5369  10.4564   7.2747   2.5702  -8.2524  -1.8356   0.00    0.0
2218 460341   44.399815645    8.937557454   112.7965   6   4   2.4400  10.0883   7.0171   2.4687  -7.9636  -1.7630   0.00    0.0
2218 460342   44.399815492    8.937554353   112.8778   6   4   2.3537   9.7599   6.7874   2.3778  -7.7060  -1.6977   0.00    0.0
2218 460343   44.399815367    8.937552750   112.9527   6   4   2.2762   9.4649   6.5810   2.2956  -7.4745  -1.6387   0.00    0.0
2218 460344   44.399814967    8.937550327   112.9945   6   4   2.2061   9.1979   6.3943   2.2209  -7.2650  -1.5850   0.00    0.0
2218 460345   44.399814876    8.937552502   112.8521   6   4   2.1423   8.9549   6.2243   2.1526  -7.0743  -1.5357   0.00    0.0
2218 460346   44.399814651    8.937554055   112.7029   6   4   2.0840   8.7325   6.0688   2.0897  -6.8998  -1.4904   0.00    0.0
2218 460347   44.399814724    8.937554776   112.6512   6   4   2.0303   8.5279   5.9258   2.0316  -6.7393  -1.4485   0.00    0.0
2218 460348   44.399814589    8.937553613   112.7237   6   4   1.9808   8.3390   5.7938   1.9778  -6.5910  -1.4095   0.00    0.0
2218 460349   44.399814251    8.937552594   112.7991   6   4   1.9348   8.1638   5.6714   1.9276  -6.4536  -1.3732   0.00    0.0
2218 460350   44.399814010    8.937553284   112.7830   6   4   1.8921   8.0009   5.5575   1.8807  -6.3257  -1.3392   0.00    0.0
2218 460351   44.399813784    8.937553958   112.7509   6   4   1.8521   7.8489   5.4513   1.8367  -6.2064  -1.3073   0.00    0.0
2218 460352   44.399813792    8.937553007   112.7831   6   4   1.8148   7.7066   5.3519   1.7954  -6.0948  -1.2773   0.00    0.0
2218 460353   44.399813716    8.937554780   112.6939   6   4   1.7797   7.5731   5.2587   1.7564  -5.9901  -1.2490   0.00    0.0
2218 460354   44.399813698    8.937555125   112.6806   6   4   1.7467   7.4476   5.1711   1.7196  -5.8917  -1.2222   0.00    0.0
2218 460355   44.399813627    8.937556201   112.6089   6   4   1.7156   7.3293   5.0884   1.6847  -5.7989  -1.1968   0.00    0.0
2218 460356   44.399813470    8.937556939   112.5663   6   4   1.6861   7.2175   5.0104   1.6516  -5.7113  -1.1727   0.00    0.0
2218 460357   44.399813363    8.937558483   112.4832   6   4   1.6583   7.1118   4.9366   1.6202  -5.6283  -1.1497   0.00    0.0
2218 460358   44.399813217    8.937560145   112.3994   6   4   1.6318   7.0115   4.8666   1.5902  -5.5497  -1.1278   0.00    0.0
2218 460359   44.399817109    8.937648894   108.0098   6   7   1.5295   3.5070   2.9765   0.8151  -2.7462  -0.3785   0.00    0.0
2218 460360   44.399818344    8.937658600   107.5704   6   7   1.4507   2.6685   2.5696   0.6696  -2.0647  -0.2324   0.00    0.0
2218 460361   44.399818771    8.937661585   107.4647   6   7   1.3923   2.2605   2.3736   0.5771  -1.7266  -0.1334   0.00    0.0
2218 460362   44.399819423    8.937664182   107.3689   6   7   1.3422   2.0060   2.2529   0.5168  -1.5153  -0.0557   0.00    0.0
2218 460363   44.399819834    8.937666039   107.3234   6   7   1.2978   1.8276   2.1666   0.4732  -1.3671   0.0530   0.00    0.0
2218 460364   44.399820064    8.937667929   107.2442   6   7   1.2582   1.6938   2.0990   0.4397  -1.2553   0.0636   0.00    0.0
2218 460365   44.399820207    8.937668717   107.2495   6   7   1.2224   1.5885   2.0432   0.4126  -1.1670   0.0540   0.00    0.0
2218 460366   44.399820209    8.937669847   107.1907   6   7   1.1898   1.5030   1.9954   0.3902  -1.0951   0.0266   0.00    0.0
2218 460367   44.399820470    8.937671167   107.1249   6   7   1.1600   1.4317   1.9536   0.3712  -1.0351  -0.0441   0.00    0.0
2218 460368   44.399820461    8.937672445   107.0157   6   7   1.1324   1.3710   1.9161   0.3549  -0.9840  -0.0689   0.00    0.0
2218 460369   44.399820412    8.937673168   106.9444   6   7   1.1069   1.3186   1.8821   0.3407  -0.9398  -0.0868   0.00    0.0
2218 460370   44.399820326    8.937673489   106.8751   6   6   1.0874   1.2985   1.9047   0.2883  -0.9633   0.1801   0.00    0.0
2218 460371   44.399820100    8.937674185   106.8198   6   6   1.0657   1.2609   1.8842   0.2727  -0.9380   0.1820   0.00    0.0
2218 460372   44.399819867    8.937675086   106.7108   6   6   1.0453   1.2261   1.8602   0.2592  -0.9119   0.1803   0.00    0.0
2218 460373   44.399819772    8.937675651   106.6303   6   6   1.0262   1.1948   1.8379   0.2470  -0.8886   0.1782   0.00    0.0
2218 460374   44.399819620    8.937675842   106.5702   6   6   1.0082   1.1663   1.8165   0.2359  -0.8673   0.1759   0.00    0.0
2218 460375   44.399819530    8.937675880   106.5479   6   6   0.9913   1.1403   1.7962   0.2256  -0.8479   0.1736   0.00    0.0
2218 460376   44.399819304    8.937676138   106.4755   6   6   0.9753   1.1163   1.7768   0.2161  -0.8302   0.1712   0.00    0.0
2218 460377   44.399819094    8.937676707   106.3986   6   6   0.9601   1.0942   1.7584   0.2073  -0.8138   0.1688   0.00    0.0
2218 460378   44.399819049    8.937676640   106.3496   6   6   0.9457   1.0738   1.7407   0.1992  -0.7988   0.1664   0.00    0.0
2218 460379   44.399818917    8.937676862   106.3018   6   6   0.9320   1.0547   1.7237   0.1915  -0.7848   0.1641   0.00    0.0
2218 460380   44.399818915    8.937676772   106.2694   6   6   0.9189   1.0369   1.7075   0.1844  -0.7719   0.1617   0.00    0.0
2218 460381   44.399818766    8.937676916   106.2253   6   6   0.9065   1.0203   1.6918   0.1776  -0.7598   0.1595   0.00    0.0
2218 460382   44.399818652    8.937676705   106.1749   6   6   0.8946   1.0047   1.6768   0.1713  -0.7484   0.1573   0.00    0.0
2218 460383   44.399818478    8.937676763   106.1398   6   6   0.8833   0.9899   1.6622   0.1653  -0.7378   0.1551   0.00    0.0
2218 460384   44.399818375    8.937676733   106.1036   6   6   0.8724   0.9761   1.6482   0.1597  -0.7278   0.1531   0.00    0.0
2218 460385   44.399818402    8.937676851   106.0808   6   6   0.8620   0.9629   1.6346   0.1543  -0.7184   0.1511   0.00    0.0
2218 460386   44.399818328    8.937676983   106.0229   6   6   0.8520   0.9505   1.6215   0.1492  -0.7096   0.1491   0.00    0.0
2218 460387   44.399818266    8.937677153   105.9873   6   6   0.8424   0.9386   1.6088   0.1443  -0.7011   0.1473   0.00    0.0
2218 460388   44.399818214    8.937677118   105.9534   6   6   0.8332   0.9274   1.5965   0.1397  -0.6932   0.1455   0.00    0.0
2218 460389   44.399817982    8.937677081   105.8914   6   6   0.8243   0.9167   1.5846   0.1352  -0.6856   0.1437   0.00    0.0
2218 460390   44.399817989    8.937677148   105.8600   6   6   0.8157   0.9064   1.5730   0.1310  -0.6784   0.1421   0.00    0.0
2218 460391   44.399817893    8.937677196   105.8387   6   6   0.8075   0.8967   1.5617   0.1269  -0.6716   0.1405   0.00    0.0
2218 460392   44.399817743    8.937677053   105.8179   6   6   0.7995   0.8873   1.5508   0.1230  -0.6650   0.1389   0.00    0.0
2218 460393   44.399817796    8.937677137   105.7691   6   6   0.7918   0.8783   1.5401   0.1193  -0.6588   0.1374   0.00    0.0
2218 460394   44.399817682    8.937677118   105.7342   6   6   0.7844   0.8697   1.5298   0.1157  -0.6528   0.1360   0.00    0.0
2218 460395   44.399817656    8.937676955   105.7125   6   6   0.7772   0.8615   1.5197   0.1122  -0.6471   0.1346   0.00    0.0
2218 460396   44.399817592    8.937676807   105.6885   6   6   0.7703   0.8535   1.5099   0.1088  -0.6417   0.1333   0.00    0.0
2218 460397   44.399817475    8.937676539   105.7014   6   6   0.7635   0.8459   1.5003   0.1056  -0.6364   0.1320   0.00    0.0
2218 460398   44.399817308    8.937676497   105.6771   6   6   0.7570   0.8385   1.4910   0.1025  -0.6314   0.1308   0.00    0.0
2218 460399   44.399817232    8.937676470   105.6502   6   6   0.7507   0.8314   1.4819   0.0994  -0.6265   0.1296   0.00    0.0
2218 460400   44.399817203    8.937676124   105.6329   6   6   0.7446   0.8246   1.4730   0.0965  -0.6218   0.1284   0.00    0.0
2218 460401   44.399817210    8.937676116   105.6339   6   6   0.7386   0.8180   1.4643   0.0936  -0.6173   0.1273   0.00    0.0
2218 460402   44.399817145    8.937675999   105.6044   6   7   0.7327   0.8112   1.4546   0.0927  -0.6118   0.1229   0.00    0.0
2218 460403   44.399817157    8.937676016   105.5901   6   7   0.7232   0.7828   1.4122   0.1486  -0.5573  -0.0920   0.00    0.0
2218 460404   44.399817151    8.937675910   105.5754   6   7   0.7170   0.7685   1.3839   0.1583  -0.5284  -0.1264   0.00    0.0
2218 460405   44.399817167    8.937675691   105.6072   6   7   0.7113   0.7586   1.3666   0.1627  -0.5122  -0.1415   0.00    0.0
2218 460406   44.399817175    8.937675522   105.6182   6   7   0.7057   0.7503   1.3540   0.1656  -0.5013  -0.1509   0.00    0.0
2218 460407   44.399817043    8.937675435   105.6169   6   7   0.7003   0.7429   1.3429   0.1672  -0.4924  -0.1574   0.00    0.0
2218 460408   44.399817121    8.937675337   105.6033   6   7   0.6952   0.7361   1.3326   0.1682  -0.4846  -0.1622   0.00    0.0
2218 460409   44.399817067    8.937675293   105.5937   6   7   0.6902   0.7297   1.3228   0.1687  -0.4775  -0.1661   0.00    0.0
2218 460410   44.399817135    8.937675086   105.6018   6   7   0.6854   0.7237   1.3135   0.1689  -0.4711  -0.1693   0.00    0.0
2218 460411   44.399817265    8.937674889   105.6129   6   7   0.6807   0.7179   1.3047   0.1690  -0.4652  -0.1719   0.00    0.0
2218 460412   44.399817264    8.937674830   105.5829   6   7   0.6762   0.7124   1.2963   0.1690  -0.4597  -0.1742   0.00    0.0
2218 460413   44.399817262    8.937674710   105.5774   6   7   0.6717   0.7071   1.2881   0.1688  -0.4545  -0.1763   0.00    0.0
2218 460414   44.399817349    8.937674570   105.5860   6   7   0.6674   0.7020   1.2802   0.1686  -0.4496  -0.1781   0.00    0.0
2218 460415   44.399817355    8.937674768   105.5544   6   7   0.6631   0.6970   1.2725   0.1684  -0.4449  -0.1797   0.00    0.0
2218 460416   44.399817434    8.937674614   105.5603   6   7   0.6590   0.6922   1.2650   0.1682  -0.4404  -0.1811   0.00    0.0
2218 460417   44.399817391    8.937674479   105.5766   6   7   0.6550   0.6876   1.2578   0.1679  -0.4361  -0.1825   0.00    0.0
2218 460418   44.399817251    8.937674459   105.5626   6   7   0.6510   0.6830   1.2507   0.1676  -0.4320  -0.1837   0.00    0.0
2218 460419   44.399817320    8.937674536   105.5196   6   7   0.6472   0.6786   1.2437   0.1673  -0.4280  -0.1848   0.00    0.0
2218 460420   44.399817355    8.937674289   105.5396   6   7   0.6434   0.6744   1.2369   0.1670  -0.4241  -0.1858   0.00    0.0
2218 460421   44.399817343    8.937674222   105.5456   6   7   0.6397   0.6702   1.2303   0.1667  -0.4204  -0.1868   0.00    0.0
2218 460422   44.399817295    8.937674062   105.5664   6   7   0.6361   0.6661   1.2238   0.1663  -0.4168  -0.1877   0.00    0.0
2218 460423   44.399817228    8.937674043   105.5590   6   6   0.6326   0.6622   1.2179   0.1658  -0.4137  -0.1879   0.00    0.0
2218 460424   44.399817207    8.937673943   105.5644   6   6   0.6292   0.6585   1.2120   0.1652  -0.4106  -0.1881   0.00    0.0
2218 460425   44.399817171    8.937673848   105.5644   6   6   0.6259   0.6547   1.2062   0.1647  -0.4077  -0.1884   0.00    0.0
2218 460426   44.399817198    8.937673640   105.5708   6   7   0.6226   0.6510   1.2002   0.1645  -0.4043  -0.1892   0.00    0.0
2218 460427   44.399817271    8.937673382   105.5817   6   7   0.6193   0.6474   1.1942   0.1642  -0.4012  -0.1898   0.00    0.0
2218 460428   44.399817239    8.937673431   105.5916   6   7   0.6161   0.6439   1.1885   0.1639  -0.3981  -0.1905   0.00    0.0
2218 460429   44.399817293    8.937673318   105.5898   6   7   0.6130   0.6404   1.1828   0.1636  -0.3951  -0.1911   0.00    0.0
2218 460430   44.399817151    8.937673355   105.5589   6   7   0.6100   0.6371   1.1772   0.1633  -0.3922  -0.1916   0.00    0.0
2218 460431   44.399817238    8.937672698   105.6384   6   6   0.6142   0.6830   1.2564   0.0515  -0.5167   0.0756   0.00    0.0
2218 460432   44.399817337    8.937672510   105.6547   6   6   0.6114   0.6822   1.2596   0.0457  -0.5222   0.0822   0.00    0.0
2218 460433   44.399817217    8.937672588   105.6277   6   6   0.6086   0.6794   1.2552   0.0437  -0.5207   0.0826   0.00    0.0
2218 460434   44.399817307    8.937672666   105.6004   6   6   0.6058   0.6768   1.2513   0.0418  -0.5195   0.0827   0.00    0.0
2218 460435   44.399817276    8.937672725   105.5735   6   6   0.6031   0.6740   1.2470   0.0401  -0.5179   0.0828   0.00    0.0
2218 460436   44.399817217    8.937672787   105.5541   6   6   0.6004   0.6713   1.2427   0.0382  -0.5163   0.0829   0.00    0.0
2218 460437   44.399817251    8.937672833   105.5328   6   6   0.5978   0.6687   1.2384   0.0364  -0.5148   0.0830   0.00    0.0
2218 460438   44.399817247    8.937673023   105.5026   6   6   0.5952   0.6661   1.2342   0.0346  -0.5132   0.0831   0.00    0.0
2218 460439   44.399817259    8.937673103   105.4679   6   6   0.5927   0.6636   1.2301   0.0327  -0.5117   0.0831   0.00    0.0
2218 460440   44.399817241    8.937673209   105.4405   6   6   0.5902   0.6611   1.2260   0.0308  -0.5102   0.0832   0.00    0.0
2218 460441   44.399817262    8.937673310   105.4136   6   6   0.5878   0.6586   1.2220   0.0288  -0.5088   0.0832   0.00    0.0
2218 460442   44.399817178    8.937673304   105.3972   6   6   0.5854   0.6562   1.2180   0.0267  -0.5073   0.0833   0.00    0.0
2218 460443   44.399817263    8.937673348   105.3605   6   6   0.5830   0.6539   1.2141   0.0246  -0.5059   0.0833   0.00    0.0
2218 460444   44.399817325    8.937673492   105.3290   6   6   0.5807   0.6515   1.2102   0.0224  -0.5045   0.0834   0.00    0.0
2218 460445   44.399817316    8.937673601   105.3196   6   6   0.5784   0.6493   1.2064   0.0199  -0.5032   0.0834   0.00    0.0
2218 460446   44.399817253    8.937673623   105.2981   6   6   0.5762   0.6470   1.2027   0.0173  -0.5018   0.0835   0.00    0.0
2218 460447   44.399817380    8.937673788   105.2612   6   6   0.5740   0.6448   1.1990   0.0142  -0.5005   0.0835   0.00    0.0
2218 460448   44.399817427    8.937673775   105.2401   6   6   0.5718   0.6426   1.1953   0.0105  -0.4993   0.0836   0.00    0.0
2218 460449   44.399817423    8.937673839   105.2178   6   6   0.5697   0.6405   1.1918   0.0045  -0.4980   0.0836   0.00    0.0
2218 460450   44.399817440    8.937673828   105.2083   6   6   0.5676   0.6384   1.1882  -0.0081  -0.4967   0.0836   0.00    0.0
2218 460451   44.399817476    8.937673961   105.1650   6   7   0.5654   0.6362   1.1841  -0.0059  -0.4950   0.0819   0.00    0.0
2218 460452   44.399817419    8.937674044   105.1477   6   7   0.5585   0.6067   1.1391   0.1166  -0.4319  -0.1279   0.00    0.0
2218 460453   44.399817464    8.937674242   105.1109   6   7   0.5556   0.5946   1.1111   0.1296  -0.3996  -0.1530   0.00    0.0
2218 460454   44.399817428    8.937674237   105.0892   6   7   0.5531   0.5877   1.0967   0.1359  -0.3832  -0.1642   0.00    0.0
2218 460455   44.399817413    8.937674352   105.0576   6   7   0.5507   0.5827   1.0880   0.1401  -0.3737  -0.1711   0.00    0.0
2218 460456   44.399817451    8.937674563   105.0296   6   7   0.5485   0.5787   1.0810   0.1429  -0.3666  -0.1757   0.00    0.0
2218 460457   44.399817386    8.937674604   105.0102   6   7   0.5464   0.5753   1.0746   0.1448  -0.3608  -0.1790   0.00    0.0
2218 460458   44.399817313    8.937674819   104.9703   6   7   0.5443   0.5722   1.0689   0.1461  -0.3558  -0.1815   0.00    0.0
2218 460459   44.399817392    8.937674729   104.9535   6   7   0.5423   0.5693   1.0636   0.1471  -0.3516  -0.1834   0.00    0.0
2218 460460   44.399817302    8.937674947   104.9328   6   7   0.5404   0.5667   1.0587   0.1479  -0.3479  -0.1850   0.00    0.0
2218 460461   44.399817363    8.937674878   104.9120   6   7   0.5385   0.5642   1.0542   0.1485  -0.3446  -0.1863   0.00    0.0
2218 460462   44.399817264    8.937674956   104.8815   6   7   0.5366   0.5618   1.0498   0.1489  -0.3416  -0.1875   0.00    0.0
2218 460463   44.399817317    8.937675075   104.8504   6   7   0.5348   0.5595   1.0456   0.1493  -0.3388  -0.1884   0.00    0.0
2218 460464   44.399817304    8.937675165   104.8170   6   7   0.5330   0.5573   1.0415   0.1496  -0.3362  -0.1893   0.00    0.0
2218 460465   44.399817312    8.937675361   104.7809   6   7   0.5312   0.5552   1.0376   0.1499  -0.3337  -0.1900   0.00    0.0
2218 460466   44.399817245    8.937675369   104.7639   6   7   0.5295   0.5531   1.0338   0.1501  -0.3314  -0.1907   0.00    0.0
2218 460467   44.399817186    8.937675666   104.7058   6   7   0.5278   0.5511   1.0301   0.1503  -0.3292  -0.1913   0.00    0.0
2218 460468   44.399817140    8.937675788   104.6782   6   7   0.5261   0.5491   1.0264   0.1504  -0.3271  -0.1918   0.00    0.0
2218 460469   44.399817115    8.937675949   104.6338   6   7   0.5244   0.5472   1.0229   0.1505  -0.3251  -0.1923   0.00    0.0
2218 460470   44.399817046    8.937675920   104.5966   6   7   0.5228   0.5454   1.0194   0.1506  -0.3232  -0.1928   0.00    0.0
2218 460471   44.399816999    8.937676062   104.5707   6   7   0.5211   0.5435   1.0160   0.1507  -0.3213  -0.1932   0.00    0.0
2218 460472   44.399816988    8.937675970   104.5339   6   7   0.5195   0.5417   1.0126   0.1507  -0.3195  -0.1936   0.00    0.0
2218 460473   44.399816989    8.937676266   104.5033   6   7   0.5180   0.5400   1.0093   0.1508  -0.3178  -0.1939   0.00    0.0
2218 460474   44.399816897    8.937676231   104.5031   6   7   0.5164   0.5382   1.0061   0.1508  -0.3161  -0.1943   0.00    0.0
2218 460475   44.399816886    8.937676338   104.4591   6   7   0.5149   0.5365   1.0029   0.1508  -0.3144  -0.1946   0.00    0.0
2218 460476   44.399816823    8.937676385   104.4289   6   7   0.5134   0.5349   0.9998   0.1508  -0.3128  -0.1949   0.00    0.0
2218 460477   44.399816881    8.937676500   104.4043   6   7   0.5119   0.5332   0.9967   0.1508  -0.3112  -0.1951   0.00    0.0
2218 460478   44.399816929    8.937676488   104.3825   6   7   0.5104   0.5316   0.9937   0.1508  -0.3097  -0.1954   0.00    0.0
2218 460479   44.399816903    8.937676523   104.3710   6   7   0.5090   0.5300   0.9907   0.1508  -0.3082  -0.1956   0.00    0.0
2218 460480   44.399816854    8.937676667   104.3395   6   7   0.5075   0.5285   0.9877   0.1508  -0.3067  -0.1959   0.00    0.0
2218 460481   44.399816853    8.937676657   104.3166   6   7   0.5061   0.5269   0.9848   0.1508  -0.3053  -0.1961   0.00    0.0
2218 460482   44.399816903    8.937676658   104.3104   6   7   0.5047   0.5254   0.9819   0.1508  -0.3039  -0.1963   0.00    0.0
2218 460483   44.399816861    8.937676644   104.2757   6   7   0.5033   0.5239   0.9791   0.1507  -0.3025  -0.1965   0.00    0.0
2218 460484   44.399816984    8.937676684   104.2600   6   7   0.5020   0.5224   0.9762   0.1507  -0.3011  -0.1967   0.00    0.0
2218 460485   44.399816942    8.937676728   104.2346   6   7   0.5006   0.5210   0.9735   0.1507  -0.2998  -0.1968   0.00    0.0
2218 460486   44.399816929    8.937676630   104.2395   6   7   0.4993   0.5195   0.9707   0.1506  -0.2985  -0.1970   0.00    0.0
2218 460487   44.399816986    8.937676635   104.2311   6   7   0.4980   0.5181   0.9680   0.1506  -0.2972  -0.1972   0.00    0.0
2218 460488   44.399816896    8.937676601   104.2387   6   7   0.4967   0.5167   0.9654   0.1506  -0.2959  -0.1973   0.00    0.0
2218 460489   44.399816979    8.937676583   104.2358   6   7   0.4954   0.5153   0.9627   0.1505  -0.2947  -0.1975   0.00    0.0
2218 460490   44.399816883    8.937676605   104.2269   6   7   0.4941   0.5140   0.9601   0.1505  -0.2935  -0.1976   0.00    0.0
2218 460491   44.399816939    8.937676577   104.2318   6   7   0.4928   0.5126   0.9575   0.1504  -0.2923  -0.1977   0.00    0.0
2218 460492   44.399816914    8.937676790   104.2024   6   7   0.4916   0.5113   0.9550   0.1504  -0.2911  -0.1979   0.00    0.0
2218 460493   44.399816919    8.937676670   104.2113   6   7   0.4904   0.5100   0.9525   0.1503  -0.2899  -0.1980   0.00    0.0
2218 460494   44.399816851    8.937676552   104.2104   6   7   0.4891   0.5087   0.9500   0.1503  -0.2888  -0.1981   0.00    0.0
2218 460495   44.399816883    8.937676669   104.1854   6   7   0.4879   0.5074   0.9475   0.1502  -0.2876  -0.1982   0.00    0.0
2218 460496   44.399816834    8.937676615   104.1872   6   7   0.4868   0.5062   0.9450   0.1502  -0.2865  -0.1983   0.00    0.0
2218 460497   44.399816746    8.937676701   104.1622   6   7   0.4856   0.5049   0.9426   0.1501  -0.2854  -0.1984   0.00    0.0
2218 460498   44.399816740    8.937676688   104.1521   6   7   0.4844   0.5037   0.9402   0.1501  -0.2843  -0.1985   0.00    0.0
2218 460499   44.399816590    8.937676730   104.1220   6   7   0.4833   0.5025   0.9379   0.1500  -0.2832  -0.1986   0.00    0.0
2218 460500   44.399816585    8.937676732   104.1163   6   7   0.4821   0.5013   0.9355   0.1500  -0.2822  -0.1987   0.00    0.0
2218 460501   44.399816581    8.937676686   104.1002   6   7   0.4810   0.5001   0.9332   0.1499  -0.2811  -0.1988   0.00    0.0
2218 460502   44.399816433    8.937676805   104.0715   6   7   0.4799   0.4989   0.9309   0.1499  -0.2801  -0.1989   0.00    0.0
2218 460503   44.399816440    8.937676744   104.0694   6   7   0.4788   0.4977   0.9287   0.1498  -0.2791  -0.1990   0.00    0.0
2218 460504   44.399816416    8.937676852   104.0488   6   7   0.4777   0.4966   0.9264   0.1498  -0.2781  -0.1990   0.00    0.0
2218 460505   44.399816298    8.937676760   104.0479   6   7   0.4766   0.4954   0.9242   0.1497  -0.2771  -0.1991   0.00    0.0
2218 460506   44.399816273    8.937676939   104.0132   6   7   0.4755   0.4943   0.9220   0.1497  -0.2761  -0.1992   0.00    0.0
2218 460507   44.399816229    8.937676947   103.9969   6   7   0.4745   0.4932   0.9198   0.1496  -0.2751  -0.1993   0.00    0.0
2218 460508   44.399816142    8.937676908   103.9945   6   7   0.4734   0.4921   0.9177   0.1495  -0.2742  -0.1993   0.00    0.0
2218 460509   44.399816100    8.937677034   103.9796   6   7   0.4724   0.4910   0.9155   0.1495  -0.2732  -0.1994   0.00    0.0
2218 460510   44.399816014    8.937677176   103.9631   6   7   0.4714   0.4899   0.9134   0.1494  -0.2723  -0.1994   0.00    0.0
2218 460511   44.399816018    8.937677145   103.9627   6   7   0.4704   0.4889   0.9113   0.1494  -0.2713  -0.1995   0.00    0.0
2218 460512   44.399815950    8.937677085   103.9451   6   7   0.4694   0.4878   0.9092   0.1493  -0.2704  -0.1996   0.00    0.0
2218 460513   44.399815983    8.937677311   103.9015   6   7   0.4684   0.4868   0.9072   0.1493  -0.2695  -0.1996   0.00    0.0
2218 460514   44.399815982    8.937677031   103.9202   6   7   0.4674   0.4858   0.9052   0.1492  -0.2686  -0.1997   0.00    0.0
2218 460515   44.399815973    8.937677155   103.8989   6   7   0.4664   0.4847   0.9031   0.1492  -0.2677  -0.1997   0.00    0.0
2218 460516   44.399815866    8.937677146   103.8929   6   7   0.4654   0.4837   0.9011   0.1491  -0.2669  -0.1998   0.00    0.0
2218 460517   44.399815861    8.937677095   103.8831   6   7   0.4645   0.4827   0.8992   0.1491  -0.2660  -0.1998   0.00    0.0
2218 460518   44.399815782    8.937677165   103.8725   6   7   0.4635   0.4817   0.8972   0.1490  -0.2651  -0.1999   0.00    0.0
2218 460519   44.399815757    8.937677097   103.8638   6   7   0.4626   0.4808   0.8953   0.1490  -0.2643  -0.1999   0.00    0.0
2218 460520   44.399815796    8.937677133   103.8953   6   7   0.4617   0.4798   0.8933   0.1489  -0.2635  -0.2000   0.00    0.0
2218 460521   44.399815801    8.937677113   103.8734   6   7   0.4607   0.4788   0.8914   0.1488  -0.2626  -0.2000   0.00    0.0
2218 460522   44.399815761    8.937677184   103.8620   6   7   0.4598   0.4779   0.8895   0.1488  -0.2618  -0.2001   0.00    0.0
2218 460523   44.399815757    8.937677129   103.8603   6   7   0.4589   0.4769   0.8877   0.1487  -0.2610  -0.2001   0.00    0.0
2218 460524   44.399815807    8.937677048   103.8448   6   7   0.4580   0.4760   0.8858   0.1487  -0.2602  -0.2001   0.00    0.0
2218 460525   44.399815752    8.937677151   103.8538   6   7   0.4571   0.4751   0.8840   0.1486  -0.2594  -0.2002   0.00    0.0
2218 460526   44.399815752    8.937677095   103.8532   6   7   0.4562   0.4742   0.8821   0.1486  -0.2586  -0.2002   0.00    0.0
2218 460527   44.399815707    8.937677083   103.8256   6   7   0.4554   0.4733   0.8803   0.1485  -0.2578  -0.2002   0.00    0.0
2218 460528   44.399815782    8.937677116   103.8156   6   7   0.4545   0.4724   0.8785   0.1485  -0.2571  -0.2003   0.00    0.0
2218 460529   44.399815735    8.937677099   103.8155   6   7   0.4537   0.4715   0.8767   0.1484  -0.2563  -0.2003   0.00    0.0
2218 460530   44.399815686    8.937677147   103.8065   6   7   0.4528   0.4706   0.8750   0.1484  -0.2555  -0.2003   0.00    0.0
2218 460531   44.399815666    8.937677141   103.7964   6   7   0.4520   0.4697   0.8732   0.1483  -0.2548  -0.2004   0.00    0.0
2218 460532   44.399815612    8.937677221   103.7968   6   7   0.4511   0.4689   0.8715   0.1483  -0.2540  -0.2004   0.00    0.0
2218 460533   44.399815588    8.937677295   103.7641   6   7   0.4503   0.4680   0.8698   0.1482  -0.2533  -0.2004   0.00    0.0
2218 460534   44.399815643    8.937677021   103.7717   6   7   0.4495   0.4672   0.8681   0.1482  -0.2526  -0.2005   0.00    0.0
2218 460535   44.399815678    8.937677192   103.7708   6   7   0.4487   0.4663   0.8664   0.1481  -0.2519  -0.2005   0.00    0.0
2218 460536   44.399815607    8.937677191   103.7310   6   7   0.4479   0.4655   0.8647   0.1481  -0.2511  -0.2005   0.00    0.0
2218 460537   44.399815594    8.937677106   103.7607   6   7   0.4471   0.4647   0.8630   0.1480  -0.2504  -0.2005   0.00    0.0
2218 460538   44.399815618    8.937677060   103.7432   6   7   0.4463   0.4639   0.8614   0.1480  -0.2497  -0.2006   0.00    0.0
2218 460539   44.399815707    8.937677077   103.7197   6   7   0.4455   0.4631   0.8598   0.1479  -0.2490  -0.2006   0.00    0.0
2218 460540   44.399815700    8.937677145   103.7128   6   7   0.4447   0.4623   0.8581   0.1479  -0.2484  -0.2006   0.00    0.0
2218 460541   44.399815665    8.937677163   103.7059   6   7   0.4440   0.4615   0.8565   0.1478  -0.2477  -0.2006   0.00    0.0
2218 460542   44.399815693    8.937677291   103.6898   6   7   0.4432   0.4607   0.8549   0.1478  -0.2470  -0.2007   0.00    0.0
2218 460543   44.399815679    8.937677261   103.6964   6   7   0.4424   0.4599   0.8534   0.1477  -0.2463  -0.2007   0.00    0.0
2218 460544   44.399815712    8.937677268   103.6913   6   7   0.4417   0.4591   0.8518   0.1477  -0.2457  -0.2007   0.00    0.0
2218 460545   44.399815681    8.937677298   103.6789   6   7   0.4409   0.4584   0.8502   0.1476  -0.2450  -0.2007   0.00    0.0
2218 460546   44.399815639    8.937677168   103.6900   6   7   0.4402   0.4576   0.8487   0.1476  -0.2444  -0.2007   0.00    0.0
2218 460547   44.399815729    8.937677092   103.6781   6   7   0.4395   0.4568   0.8471   0.1475  -0.2437  -0.2008   0.00    0.0
2218 460548   44.399815650    8.937677252   103.6637   6   7   0.4387   0.4561   0.8456   0.1475  -0.2431  -0.2008   0.00    0.0
2218 460549   44.399815727    8.937677076   103.6642   6   7   0.4380   0.4554   0.8441   0.1474  -0.2424  -0.2008   0.00    0.0
2218 460550   44.399815636    8.937677288   103.6626   6   7   0.4373   0.4546   0.8426   0.1474  -0.2418  -0.2008   0.00    0.0
2218 460551   44.399815638    8.937677142   103.6661   6   7   0.4366   0.4539   0.8411   0.1473  -0.2412  -0.2008   0.00    0.0
2218 460552   44.399815575    8.937677246   103.6523   6   7   0.4359   0.4532   0.8397   0.1473  -0.2406  -0.2009   0.00    0.0
2218 460553   44.399815535    8.937677228   103.6387   6   7   0.4352   0.4525   0.8382   0.1472  -0.2399  -0.2009   0.00    0.0
2218 460554   44.399815531    8.937677157   103.6553   6   7   0.4345   0.4518   0.8367   0.1472  -0.2393  -0.2009   0.00    0.0
2218 460555   44.399815551    8.937677235   103.6623   6   7   0.4338   0.4511   0.8353   0.1471  -0.2387  -0.2009   0.00    0.0
2218 460556   44.399815458    8.937677251   103.6476   6   7   0.4331   0.4504   0.8339   0.1471  -0.2381  -0.2009   0.00    0.0
2218 460557   44.399815458    8.937677305   103.6266   6   7   0.4324   0.4497   0.8324   0.1470  -0.2375  -0.2009   0.00    0.0
2218 460558   44.399815513    8.937677393   103.6071   6   7   0.4318   0.4490   0.8310   0.1470  -0.2369  -0.2009   0.00    0.0
2218 460559   44.399815401    8.937677331   103.6062   6   7   0.4311   0.4483   0.8296   0.1469  -0.2364  -0.2010   0.00    0.0
2218 460560   44.399815375    8.937677361   103.6079   6   7   0.4304   0.4476   0.8283   0.1469  -0.2358  -0.2010   0.00    0.0
2218 460561   44.399815254    8.937677512   103.5838   6   7   0.4298   0.4470   0.8269   0.1468  -0.2352  -0.2010   0.00    0.0
2218 460562   44.399815211    8.937677470   103.5973   6   7   0.4291   0.4463   0.8255   0.1468  -0.2346  -0.2010   0.00    0.0
2218 460563   44.399815110    8.937677495   103.5660   6   7   0.4285   0.4456   0.8241   0.1467  -0.2341  -0.2010   0.00    0.0
2218 460564   44.399815234    8.937677555   103.5739   6   7   0.4279   0.4450   0.8228   0.1467  -0.2335  -0.2010   0.00    0.0
2218 460565   44.399815155    8.937677634   103.5637   6   7   0.4272   0.4443   0.8215   0.1466  -0.2329  -0.2010   0.00    0.0
2218 460566   44.399815069    8.937677718   103.5425   6   7   0.4266   0.4437   0.8201   0.1466  -0.2324  -0.2010   0.00    0.0
2218 460567   44.399815101    8.937677751   103.5275   6   7   0.4260   0.4430   0.8188   0.1465  -0.2318  -0.2011   0.00    0.0
2218 460568   44.399814988    8.937677704   103.5167   6   7   0.4253   0.4424   0.8175   0.1465  -0.2313  -0.2011   0.00    0.0
2218 460569   44.399814975    8.937677769   103.5124   6   7   0.4247   0.4418   0.8162   0.1465  -0.2308  -0.2011   0.00    0.0
2218 460570   44.399814923    8.937677917   103.4902   6   7   0.4241   0.4412   0.8149   0.1464  -0.2302  -0.2011   0.00    0.0
2218 460571   44.399814891    8.937677825   103.4994   6   7   0.4235   0.4405   0.8136   0.1464  -0.2297  -0.2011   0.00    0.0
2218 460572   44.399814875    8.937678008   103.4850   6   7   0.4229   0.4399   0.8124   0.1463  -0.2292  -0.2011   0.00    0.0
2218 460573   44.399814820    8.937678062   103.4583   6   7   0.4223   0.4393   0.8111   0.1463  -0.2286  -0.2011   0.00    0.0
2218 460574   44.399814745    8.937678051   103.4594   6   7   0.4217   0.4387   0.8098   0.1462  -0.2281  -0.2011   0.00    0.0
2218 460575   44.399814764    8.937677947   103.4590   6   7   0.4211   0.4381   0.8086   0.1462  -0.2276  -0.2011   0.00    0.0
2218 460576   44.399814702    8.937678049   103.4438   6   7   0.4205   0.4375   0.8074   0.1461  -0.2271  -0.2011   0.00    0.0
2218 460577   44.399814644    8.937677995   103.4465   6   7   0.4199   0.4369   0.8061   0.1461  -0.2266  -0.2011   0.00    0.0
2218 460578   44.399814620    8.937678046   103.4387   6   7   0.4194   0.4364   0.8049   0.1460  -0.2261  -0.2012   0.00    0.0
2218 460579   44.399814573    8.937677970   103.4559   6   7   0.4188   0.4358   0.8037   0.1460  -0.2256  -0.2012   0.00    0.0
2218 460580   44.399814556    8.937678064   103.4365   6   7   0.4182   0.4352   0.8025   0.1459  -0.2251  -0.2012   0.00    0.0
2218 460581   44.399814564    8.937678043   103.4416   6   7   0.4176   0.4346   0.8013   0.1459  -0.2246  -0.2012   0.00    0.0
2218 460582   44.399814496    8.937678092   103.4279   6   7   0.4171   0.4341   0.8001   0.1459  -0.2241  -0.2012   0.00    0.0
2218 460583   44.399814387    8.937678029   103.4370   6   7   0.4165   0.4335   0.7989   0.1458  -0.2236  -0.2012   0.00    0.0
2218 460584   44.399814432    8.937678092   103.4429   6   7   0.4160   0.4329   0.7978   0.1458  -0.2231  -0.2012   0.00    0.0
2218 460585   44.399814357    8.937678074   103.4298   6   7   0.4154   0.4324   0.7966   0.1457  -0.2227  -0.2012   0.00    0.0
2218 460586   44.399814310    8.937678135   103.4186   6   7   0.4149   0.4318   0.7955   0.1457  -0.2222  -0.2012   0.00    0.0
2218 460587   44.399814229    8.937678259   103.4183   6   7   0.4143   0.4313   0.7943   0.1456  -0.2217  -0.2012   0.00    0.0
2218 460588   44.399814196    8.937678227   103.4194   6   7   0.4138   0.4307   0.7932   0.1456  -0.2212  -0.2012   0.00    0.0
2218 460589   44.399814155    8.937678187   103.4280   6   7   0.4133   0.4302   0.7920   0.1455  -0.2208  -0.2012   0.00    0.0
2218 460590   44.399814206    8.937678217   103.4281   6   7   0.4127   0.4297   0.7909   0.1455  -0.2203  -0.2012   0.00    0.0
2218 460591   44.399815773    8.937672590   104.2964   6   6   0.4231   0.4942   0.9131  -0.0469  -0.4008   0.0563   0.00    0.0
2218 460592   44.399815800    8.937671274   104.5521   6   6   0.4226   0.4963   0.9226  -0.0507  -0.4091   0.0646   0.00    0.0
2218 460593   44.399815703    8.937671525   104.5055   6   6   0.4221   0.4959   0.9220  -0.0511  -0.4092   0.0652   0.00    0.0
2218 460594   44.399815641    8.937671750   104.4289   6   6   0.4216   0.4956   0.9220  -0.0512  -0.4095   0.0653   0.00    0.0
2218 460595   44.399815674    8.937671902   104.4019   6   7   0.4211   0.4950   0.9209  -0.0510  -0.4091   0.0648   0.00    0.0
2218 460596   44.399815647    8.937671730   104.4241   6   7   0.4140   0.4622   0.8669   0.1021  -0.3361  -0.1365   0.00    0.0
2218 460597   44.399815669    8.937671784   104.4191   6   7   0.4124   0.4497   0.8339   0.1165  -0.2972  -0.1602   0.00    0.0
2218 460598   44.399815699    8.937671866   104.4086   6   7   0.4113   0.4435   0.8187   0.1232  -0.2778  -0.1707   0.00    0.0
2218 460599   44.399815632    8.937671871   104.3969   6   7   0.4102   0.4395   0.8110   0.1278  -0.2668  -0.1771   0.00    0.0
2218 460600   44.399815592    8.937671870   104.3958   6   7   0.4094   0.4367   0.8055   0.1309  -0.2592  -0.1813   0.00    0.0
2218 460601   44.399815558    8.937671928   104.3897   6   7   0.4086   0.4345   0.8010   0.1330  -0.2531  -0.1843   0.00    0.0
2218 460602   44.399815571    8.937671877   104.3937   6   7   0.4080   0.4327   0.7971   0.1345  -0.2481  -0.1865   0.00    0.0
2218 460603   44.399815634    8.937671925   104.3863   6   7   0.4073   0.4311   0.7939   0.1356  -0.2441  -0.1882   0.00    0.0
2218 460604   44.399815519    8.937672091   104.3787   6   7   0.4067   0.4298   0.7911   0.1365  -0.2408  -0.1895   0.00    0.0
2218 460605   44.399815545    8.937672116   104.3715   6   7   0.4061   0.4287   0.7886   0.1373  -0.2380  -0.1907   0.00    0.0
2218 460606   44.399815540    8.937672061   104.3787   6   7   0.4056   0.4276   0.7864   0.1379  -0.2356  -0.1916   0.00    0.0
2218 460607   44.399815459    8.937672122   104.3638   6   7   0.4050   0.4266   0.7844   0.1384  -0.2334  -0.1924   0.00    0.0
2218 460608   44.399815490    8.937672143   104.3532   6   7   0.4045   0.4258   0.7825   0.1388  -0.2315  -0.1930   0.00    0.0
2218 460609   44.399815368    8.937672148   104.3559   6   7   0.4040   0.4249   0.7807   0.1392  -0.2298  -0.1936   0.00    0.0
2218 460610   44.399815378    8.937672324   104.3458   6   7   0.4035   0.4241   0.7791   0.1395  -0.2283  -0.1941   0.00    0.0
2218 460611   44.399815378    8.937672326   104.3239   6   7   0.4030   0.4234   0.7775   0.1398  -0.2268  -0.1946   0.00    0.0
2218 460612   44.399815393    8.937672352   104.3170   6   7   0.4025   0.4227   0.7760   0.1400  -0.2255  -0.1950   0.00    0.0
2218 460613   44.399815297    8.937672440   104.3087   6   7   0.4020   0.4220   0.7746   0.1402  -0.2243  -0.1953   0.00    0.0
2218 460614   44.399815281    8.937672406   104.3078   6   7   0.4015   0.4213   0.7732   0.1404  -0.2232  -0.1957   0.00    0.0
2218 460615   44.399815295    8.937672371   104.3075   6   7   0.4010   0.4207   0.7718   0.1405  -0.2221  -0.1959   0.00    0.0
2218 460616   44.399815272    8.937672507   104.3175   6   7   0.4006   0.4201   0.7705   0.1407  -0.2211  -0.1962   0.00    0.0
2218 460617   44.399815236    8.937672555   104.2934   6   7   0.4001   0.4195   0.7693   0.1408  -0.2202  -0.1964   0.00    0.0
2218 460618   44.399815186    8.937672610   104.2917   6   7   0.3996   0.4189   0.7680   0.1409  -0.2193  -0.1967   0.00    0.0
2218 460619   44.399815156    8.937672803   104.2793   6   7   0.3992   0.4184   0.7668   0.1410  -0.2184  -0.1969   0.00    0.0
2218 460620   44.399815143    8.937672697   104.2851   6   7   0.3987   0.4178   0.7657   0.1411  -0.2176  -0.1970   0.00    0.0
2218 460621   44.399815138    8.937672848   104.2741   6   7   0.3983   0.4173   0.7645   0.1412  -0.2168  -0.1972   0.00    0.0
2218 460622   44.399815111    8.937673015   104.2596   6   7   0.3978   0.4167   0.7634   0.1412  -0.2161  -0.1974   0.00    0.0
2218 460623   44.399815089    8.937673158   104.2410   6   7   0.3974   0.4162   0.7623   0.1413  -0.2154  -0.1975   0.00    0.0
2218 460624   44.399815002    8.937673096   104.2477   6   7   0.3969   0.4157   0.7612   0.1413  -0.2147  -0.1977   0.00    0.0
2218 460625   44.399815052    8.937673172   104.2416   6   7   0.3965   0.4152   0.7601   0.1414  -0.2140  -0.1978   0.00    0.0
2218 460626   44.399815001    8.937673301   104.2178   6   7   0.3961   0.4147   0.7591   0.1414  -0.2134  -0.1979   0.00    0.0
2218 460627   44.399814929    8.937673439   104.1920   6   7   0.3956   0.4142   0.7580   0.1415  -0.2127  -0.1980   0.00    0.0
2218 460628   44.399814991    8.937673530   104.1942   6   7   0.3952   0.4137   0.7570   0.1415  -0.2121  -0.1981   0.00    0.0
2218 460629   44.399815029    8.937673404   104.2068   6   7   0.3948   0.4132   0.7560   0.1415  -0.2115  -0.1982   0.00    0.0
2218 460630   44.399814999    8.937673582   104.1860   6   7   0.3944   0.4128   0.7550   0.1415  -0.2109  -0.1983   0.00    0.0
2218 460631   44.399814942    8.937673767   104.1638   6   7   0.3939   0.4123   0.7540   0.1416  -0.2104  -0.1984   0.00    0.0
2218 460632   44.399814946    8.937673698   104.1807   6   7   0.3935   0.4119   0.7530   0.1416  -0.2098  -0.1985   0.00    0.0
2218 460633   44.399814949    8.937673864   104.1620   6   7   0.3931   0.4114   0.7520   0.1416  -0.2093  -0.1986   0.00    0.0
2218 460634   44.399814942    8.937673981   104.1336   6   7   0.3927   0.4110   0.7511   0.1416  -0.2087  -0.1987   0.00    0.0
2218 460635   44.399814958    8.937674029   104.1364   6   7   0.3923   0.4105   0.7501   0.1416  -0.2082  -0.1987   0.00    0.0
2218 460636   44.399814913    8.937674121   104.1114   6   7   0.3919   0.4101   0.7492   0.1416  -0.2077  -0.1988   0.00    0.0
2218 460637   44.399814835    8.937674237   104.1038   6   7   0.3915   0.4096   0.7483   0.1416  -0.2072  -0.1989   0.00    0.0
2218 460638   44.399814836    8.937674240   104.0940   6   7   0.3911   0.4092   0.7474   0.1416  -0.2067  -0.1989   0.00    0.0
2218 460639   44.399814762    8.937674422   104.0703   6   7   0.3907   0.4088   0.7465   0.1416  -0.2063  -0.1990   0.00    0.0
2218 460640   44.399814789    8.937674515   104.0593   6   7   0.3903   0.4084   0.7456   0.1416  -0.2058  -0.1991   0.00    0.0
2218 460641   44.399814824    8.937674498   104.0517   6   7   0.3899   0.4080   0.7447   0.1416  -0.2053  -0.1991   0.00    0.0
2218 460642   44.399814744    8.937674527   104.0338   6   7   0.3895   0.4075   0.7438   0.1416  -0.2049  -0.1992   0.00    0.0
2218 460643   44.399814691    8.937674650   104.0208   6   7   0.3891   0.4071   0.7429   0.1416  -0.2044  -0.1992   0.00    0.0
2218 460644   44.399814777    8.937674824   104.0079   6   7   0.3887   0.4067   0.7420   0.1416  -0.2040  -0.1993   0.00    0.0
2218 460645   44.399814711    8.937674810   103.9940   6   7   0.3883   0.4063   0.7412   0.1416  -0.2035  -0.1993   0.00    0.0
2218 460646   44.399814673    8.937674925   103.9834   6   7   0.3880   0.4059   0.7403   0.1416  -0.2031  -0.1993   0.00    0.0
2218 460647   44.399814750    8.937675073   103.9776   6   7   0.3876   0.4055   0.7395   0.1416  -0.2027  -0.1994   0.00    0.0
2218 460648   44.399814674    8.937675052   103.9670   6   7   0.3872   0.4051   0.7386   0.1415  -0.2023  -0.1994   0.00    0.0
2218 460649   44.399814600    8.937675236   103.9396   6   7   0.3868   0.4048   0.7378   0.1415  -0.2019  -0.1995   0.00    0.0
2218 460650   44.399814668    8.937675326   103.9330   6   7   0.3865   0.4044   0.7370   0.1415  -0.2015  -0.1995   0.00    0.0
2218 460651   44.399814614    8.937675420   103.9281   6   7   0.3861   0.4040   0.7361   0.1415  -0.2011  -0.1995   0.00    0.0
2218 460652   44.399814677    8.937675308   103.9091   6   7   0.3857   0.4036   0.7353   0.1415  -0.2007  -0.1996   0.00    0.0
2218 460653   44.399814641    8.937675534   103.8939   6   7   0.3854   0.4032   0.7345   0.1414  -0.2003  -0.1996   0.00    0.0
2218 460654   44.399814573    8.937675510   103.8783   6   7   0.3850   0.4029   0.7337   0.1414  -0.1999  -0.1996   0.00    0.0
2218 460655   44.399814649    8.937675746   103.8573   6   7   0.3846   0.4025   0.7329   0.1414  -0.1995  -0.1997   0.00    0.0
2218 460656   44.399814638    8.937675848   103.8467   6   7   0.3843   0.4021   0.7321   0.1414  -0.1991  -0.1997   0.00    0.0
2218 460657   44.399814548    8.937675998   103.8267   6   7   0.3839   0.4018   0.7313   0.1414  -0.1988  -0.1997   0.00    0.0
2218 460658   44.399813394    8.937673646   103.7422   6   6   0.4260   0.4781   0.7392   0.2610  -0.1017  -0.1385   0.00    0.0
2218 460659   44.399813297    8.937673576   103.7036   6   6   0.4257   0.4781   0.7390   0.2612  -0.0989  -0.1377   0.00    0.0
2218 460660   44.399813279    8.937673700   103.6910   6   6   0.4255   0.4779   0.7384   0.2614  -0.0975  -0.1373   0.00    0.0
2218 460661   44.399813180    8.937673826   103.6459   6   6   0.4252   0.4777   0.7378   0.2614  -0.0964  -0.1371   0.00    0.0
2218 460662   44.399813187    8.937673856   103.6567   6   6   0.4249   0.4774   0.7373   0.2614  -0.0953  -0.1369   0.00    0.0
2218 460663   44.399813049    8.937673881   103.6131   6   6   0.4246   0.4771   0.7367   0.2614  -0.0942  -0.1368   0.00    0.0
2218 460664   44.399813068    8.937673965   103.6133   6   6   0.4242   0.4769   0.7362   0.2614  -0.0931  -0.1366   0.00    0.0
2218 460665   44.399813122    8.937674041   103.5848   6   6   0.4239   0.4766   0.7356   0.2614  -0.0920  -0.1364   0.00    0.0
2218 460666   44.399812983    8.937673992   103.5607   6   6   0.4236   0.4763   0.7351   0.2614  -0.0909  -0.1363   0.00    0.0
2218 460667   44.399812974    8.937674104   103.5371   6   6   0.4233   0.4761   0.7345   0.2614  -0.0898  -0.1361   0.00    0.0
2218 460668   44.399812980    8.937674239   103.5210   6   6   0.4230   0.4758   0.7340   0.2614  -0.0887  -0.1359   0.00    0.0
2218 460669   44.399812985    8.937674172   103.5136   6   6   0.4227   0.4755   0.7335   0.2614  -0.0875  -0.1357   0.00    0.0
2218 460670   44.399812922    8.937674242   103.4798   6   6   0.4224   0.4753   0.7329   0.2614  -0.0864  -0.1356   0.00    0.0
2218 460671   44.399812977    8.937674254   103.4746   6   6   0.4222   0.4750   0.7324   0.2614  -0.0853  -0.1354   0.00    0.0
2218 460672   44.399812985    8.937674222   103.4560   6   6   0.4219   0.4747   0.7319   0.2614  -0.0842  -0.1352   0.00    0.0
2218 460673   44.399812881    8.937674389   103.4104   6   6   0.4216   0.4745   0.7313   0.2614  -0.0830  -0.1350   0.00    0.0
2218 460674   44.399812975    8.937674492   103.4264   6   6   0.4213   0.4742   0.7308   0.2614  -0.0819  -0.1348   0.00    0.0
2218 460675   44.399812932    8.937674460   103.4158   6   6   0.4210   0.4740   0.7303   0.2613  -0.0807  -0.1347   0.00    0.0
2218 460676   44.399812892    8.937674383   103.4036   6   6   0.4207   0.4737   0.7298   0.2613  -0.0795  -0.1345   0.00    0.0
2218 460677   44.399812945    8.937674566   103.3863   6   6   0.4204   0.4735   0.7293   0.2613  -0.0784  -0.1343   0.00    0.0
2218 460678   44.399812846    8.937674511   103.3412   6   6   0.4201   0.4732   0.7288   0.2613  -0.0772  -0.1341   0.00    0.0
2218 460679   44.399812872    8.937674627   103.3274   6   6   0.4199   0.4730   0.7283   0.2613  -0.0760  -0.1340   0.00    0.0
2218 460680   44.399812841    8.937674726   103.3172   6   6   0.4196   0.4727   0.7278   0.2613  -0.0748  -0.1338   0.00    0.0
2218 460681   44.399812715    8.937674791   103.2972   6   6   0.4193   0.4725   0.7273   0.2613  -0.0736  -0.1336   0.00    0.0
2218 460682   44.399812808    8.937674746   103.2776   6   6   0.4190   0.4722   0.7268   0.2613  -0.0724  -0.1334   0.00    0.0
2218 460683   44.399812793    8.937674753   103.2699   6   6   0.4188   0.4720   0.7263   0.2613  -0.0711  -0.1333   0.00    0.0
2218 460684   44.399812663    8.937674914   103.2216   6   6   0.4185   0.4718   0.7258   0.2613  -0.0699  -0.1331   0.00    0.0
2218 460685   44.399812687    8.937675002   103.2065   6   6   0.4182   0.4715   0.7253   0.2613  -0.0687  -0.1329   0.00    0.0
2218 460686   44.399812572    8.937675149   103.1687   6   6   0.4179   0.4713   0.7248   0.2612  -0.0674  -0.1327   0.00    0.0
2218 460687   44.399812552    8.937675141   103.1435   6   6   0.4177   0.4710   0.7243   0.2612  -0.0661  -0.1326   0.00    0.0
2218 460688   44.399812573    8.937675114   103.1408   6   6   0.4174   0.4708   0.7238   0.2612  -0.0648  -0.1324   0.00    0.0
2218 460689   44.399812538    8.937675112   103.1207   6   6   0.4171   0.4706   0.7233   0.2612  -0.0635  -0.1322   0.00    0.0
2218 460690   44.399812525    8.937675235   103.1097   6   6   0.4169   0.4703   0.7229   0.2612  -0.0622  -0.1320   0.00    0.0
2218 460691   44.399812495    8.937675172   103.0890   6   6   0.4166   0.4701   0.7224   0.2612  -0.0608  -0.1319   0.00    0.0
2218 460692   44.399812503    8.937675260   103.0558   6   6   0.4163   0.4699   0.7219   0.2612  -0.0595  -0.1317   0.00    0.0
2218 460693   44.399812456    8.937675338   103.0444   6   6   0.4161   0.4696   0.7214   0.2611  -0.0581  -0.1315   0.00    0.0
2218 460694   44.399812435    8.937675403   103.0192   6   6   0.4158   0.4694   0.7210   0.2611  -0.0567  -0.1314   0.00    0.0
2218 460695   44.399812448    8.937675280   103.0042   6   6   0.4156   0.4692   0.7205   0.2611  -0.0552  -0.1312   0.00    0.0
2218 460696   44.399812420    8.937675381   102.9755   6   6   0.4153   0.4690   0.7201   0.2611  -0.0538  -0.1310   0.00    0.0
2218 460697   44.399812401    8.937675557   102.9456   6   6   0.4151   0.4687   0.7196   0.2611  -0.0523  -0.1308   0.00    0.0
2218 460698   44.399812374    8.937675485   102.9221   6   6   0.4148   0.4685   0.7191   0.2611  -0.0507  -0.1307   0.00    0.0
2218 460699   44.399812441    8.937675597   102.9019   6   6   0.4145   0.4683   0.7187   0.2610  -0.0492  -0.1305   0.00    0.0
2218 460700   44.399812391    8.937675670   102.8721   6   6   0.4143   0.4681   0.7182   0.2610  -0.0476  -0.1303   0.00    0.0
2218 460701   44.399812303    8.937675719   102.8422   6   6   0.4140   0.4678   0.7178   0.2610  -0.0459  -0.1302   0.00    0.0
2218 460702   44.399812260    8.937675738   102.8217   6   6   0.4138   0.4676   0.7173   0.2610  -0.0442  -0.1300   0.00    0.0
2218 460703   44.399812251    8.937675836   102.7961   6   6   0.4135   0.4674   0.7169   0.2610  -0.0425  -0.1298   0.00    0.0
2218 460704   44.399812233    8.937675897   102.7700   6   6   0.4133   0.4672   0.7164   0.2609  -0.0407  -0.1297   0.00    0.0
2218 460705   44.399812182    8.937675914   102.7363   6   6   0.4130   0.4670   0.7160   0.2609  -0.0388  -0.1295   0.00    0.0
2218 460706   44.399812155    8.937675945   102.7263   6   6   0.4128   0.4667   0.7156   0.2609  -0.0369  -0.1293   0.00    0.0
2218 460707   44.399812099    8.937675937   102.6970   6   6   0.4126   0.4665   0.7151   0.2609  -0.0348  -0.1292   0.00    0.0
2218 460708   44.399812042    8.937675989   102.6428   6   6   0.4123   0.4663   0.7147   0.2609  -0.0326  -0.1290   0.00    0.0
2218 460709   44.399811993    8.937676051   102.6251   6   6   0.4121   0.4661   0.7143   0.2608  -0.0304  -0.1289   0.00    0.0
2218 460710   44.399811992    8.937676079   102.6133   6   6   0.4118   0.4659   0.7138   0.2608  -0.0279  -0.1287   0.00    0.0
2218 460711   44.399811953    8.937676186   102.6063   6   6   0.4116   0.4657   0.7134   0.2608  -0.0252  -0.1285   0.00    0.0
2218 460712   44.399811908    8.937676194   102.5565   6   6   0.4114   0.4655   0.7130   0.2608  -0.0222  -0.1284   0.00    0.0
2218 460713   44.399811915    8.937676223   102.5473   6   6   0.4111   0.4652   0.7126   0.2608  -0.0188  -0.1282   0.00    0.0
2218 460714   44.399811878    8.937676262   102.5279   6   6   0.4109   0.4650   0.7121   0.2607  -0.0146  -0.1280   0.00    0.0
2218 460715   44.399811851    8.937676273   102.5076   6   6   0.4106   0.4648   0.7117   0.2607  -0.0087  -0.1279   0.00    0.0
2218 460716   44.399811811    8.937676367   102.4847   6   6   0.4104   0.4646   0.7113   0.2607   0.0079  -0.1277   0.00    0.0
2218 460717   44.399811807    8.937676403   102.4657   6   6   0.4102   0.4644   0.7109   0.2607   0.0141  -0.1276   0.00    0.0
2218 460718   44.399818322    8.937663821   100.8028   6   5   0.5137   0.6309   0.9991  -0.2536   0.5481  -0.4834   0.00    0.0
2218 460719   44.399820895    8.937658511    99.8915   6   5   0.5260   0.6513   1.0521  -0.2877   0.5951  -0.5208   0.00    0.0
2218 460720   44.399821023    8.937658350    99.7928   6   5   0.5258   0.6512   1.0521  -0.2879   0.5954  -0.5209   0.00    0.0
2218 460721   44.399820579    8.937659318    99.9407   6   5   0.5263   0.6521   1.0542  -0.2895   0.5977  -0.5226   0.00    0.0
2218 460722   44.399820261    8.937660005   100.0202   6   5   0.5263   0.6524   1.0548  -0.2901   0.5985  -0.5232   0.00    0.0
2218 460723   44.399820299    8.937659824    99.9335   6   5   0.5262   0.6523   1.0547  -0.2903   0.5988  -0.5233   0.00    0.0
2218 460724   44.399820626    8.937659214    99.7904   6   5   0.5261   0.6523   1.0550  -0.2906   0.5993  -0.5236   0.00    0.0
2218 460725   44.399820841    8.937658828    99.6681   6   5   0.5260   0.6524   1.0551  -0.2908   0.5997  -0.5238   0.00    0.0
2218 460726   44.399820967    8.937658416    99.5767   6   5   0.5259   0.6523   1.0552  -0.2910   0.6001  -0.5240   0.00    0.0
2218 460727   44.399821018    8.937658233    99.4916   6   5   0.5258   0.6523   1.0551  -0.2911   0.6004  -0.5241   0.00    0.0
2218 460728   44.399821198    8.937658119    99.4387   6   5   0.5257   0.6523   1.0551  -0.2913   0.6007  -0.5242   0.00    0.0
2218 460729   44.399821281    8.937657896    99.3217   6   5   0.5255   0.6522   1.0551  -0.2915   0.6010  -0.5243   0.00    0.0
2218 460730   44.399821375    8.937657768    99.2842   6   5   0.5254   0.6522   1.0551  -0.2916   0.6013  -0.5244   0.00    0.0
2218 460731   44.399821504    8.937657566    99.2290   6   5   0.5253   0.6522   1.0551  -0.2918   0.6016  -0.5245   0.00    0.0
2218 460732   44.399821603    8.937657139    99.0714   6   5   0.5252   0.6521   1.0551  -0.2919   0.6019  -0.5246   0.00    0.0
2218 460733   44.399821810    8.937656858    98.9842   6   5   0.5250   0.6521   1.0551  -0.2921   0.6022  -0.5248   0.00    0.0
2218 460734   44.399821944    8.937656609    98.9173   6   5   0.5249   0.6521   1.0551  -0.2923   0.6025  -0.5249   0.00    0.0
2218 460735   44.399822055    8.937656372    98.8059   6   5   0.5248   0.6521   1.0551  -0.2924   0.6028  -0.5250   0.00    0.0
2218 460736   44.399822114    8.937656167    98.7690   6   5   0.5247   0.6520   1.0550  -0.2926   0.6031  -0.5251   0.00    0.0
2218 460737   44.399822228    8.937655997    98.7089   6   5   0.5246   0.6520   1.0550  -0.2928   0.6034  -0.5252   0.00    0.0
2218 460738   44.399822344    8.937655910    98.6235   6   5   0.5244   0.6520   1.0550  -0.2929   0.6037  -0.5253   0.00    0.0
2218 460739   44.399822501    8.937655567    98.5179   6   5   0.5243   0.6520   1.0551  -0.2931   0.6040  -0.5255   0.00    0.0
2218 460740   44.399822628    8.937655353    98.4547   6   5   0.5242   0.6519   1.0551  -0.2932   0.6042  -0.5256   0.00    0.0
2218 460741   44.399822676    8.937655142    98.3688   6   5   0.5241   0.6519   1.0551  -0.2934   0.6045  -0.5257   0.00    0.0
2218 460742   44.399822814    8.937654935    98.2777   6   5   0.5240   0.6519   1.0551  -0.2936   0.6048  -0.5258   0.00    0.0
2218 460743   44.399822989    8.937654537    98.1585   6   5   0.5239   0.6519   1.0551  -0.2937   0.6051  -0.5259   0.00    0.0
2218 460744   44.399823041    8.937654523    98.1166   6   5   0.5237   0.6518   1.0551  -0.2939   0.6054  -0.5260   0.00    0.0
2218 460745   44.399823094    8.937654436    98.0642   6   5   0.5236   0.6518   1.0551  -0.2941   0.6057  -0.5262   0.00    0.0
2218 460746   44.399823161    8.937654231    97.9884   6   5   0.5235   0.6518   1.0551  -0.2942   0.6060  -0.5263   0.00    0.0
2218 460747   44.399823290    8.937654028    97.8944   6   5   0.5234   0.6518   1.0551  -0.2944   0.6063  -0.5264   0.00    0.0
2218 460748   44.399823387    8.937653793    97.7975   6   5   0.5233   0.6518   1.0551  -0.2946   0.6066  -0.5265   0.00    0.0
2218 460749   44.399823468    8.937653979    97.8019   6   5   0.5231   0.6493   1.0522  -0.2940   0.6032  -0.5261   0.00    0.0
2218 460750   44.399823570    8.937654089    97.7462   6   5   0.5213   0.5465   0.9793  -0.2675   0.4790  -0.5103   0.00    0.0
2218 460751   44.399823642    8.937654149    97.6839   6   5   0.5160   0.5018   0.9267  -0.2365   0.4016  -0.4874   0.00    0.0
2218 460752   44.399823732    8.937654314    97.6212   6   5   0.5132   0.4797   0.8999  -0.2196   0.3591  -0.4755   0.00    0.0
2218 460753   44.399823868    8.937654202    97.5445   6   5   0.5123   0.4660   0.8875  -0.2126   0.3353  -0.4713   0.00    0.0
2218 460754   44.399823977    8.937654202    97.5022   6   5   0.5119   0.4567   0.8804  -0.2091   0.3200  -0.4695   0.00    0.0
2218 460755   44.399824072    8.937654311    97.4337   6   5   0.5115   0.4497   0.8748  -0.2063   0.3082  -0.4680   0.00    0.0
2218 460756   44.399824166    8.937654416    97.3756   6   5   0.5111   0.4443   0.8701  -0.2038   0.2983  -0.4666   0.00    0.0
2218 460757   44.399824295    8.937654401    97.3052   6   5   0.5108   0.4399   0.8661  -0.2017   0.2901  -0.4653   0.00    0.0
2218 460758   44.399824389    8.937654362    97.2556   6   5   0.5105   0.4363   0.8628  -0.1999   0.2833  -0.4644   0.00    0.0
2218 460759   44.399824537    8.937654283    97.2026   6   5   0.5102   0.4333   0.8601  -0.1985   0.2777  -0.4636   0.00    0.0
2218 460760   44.399824582    8.937654371    97.1525   6   5   0.5099   0.4307   0.8578  -0.1974   0.2730  -0.4630   0.00    0.0
2218 460761   44.399824753    8.937654373    97.0924   6   5   0.5097   0.4285   0.8558  -0.1965   0.2690  -0.4625   0.00    0.0
2218 460762   44.399824908    8.937654368    97.0434   6   6   0.5095   0.4266   0.8540  -0.1957   0.2655  -0.4621   0.00    0.0
2218 460763   44.399825026    8.937654300    96.9834   6   6   0.5092   0.4249   0.8524  -0.1950   0.2625  -0.4617   0.00    0.0
2218 460764   44.399825135    8.937654331    96.9447   6   6   0.5090   0.4234   0.8510  -0.1945   0.2598  -0.4614   0.00    0.0
2218 460765   44.399825147    8.937654370    96.8987   6   6   0.5088   0.4221   0.8497  -0.1940   0.2574  -0.4612   0.00    0.0
2218 460766   44.399825244    8.937654385    96.8513   6   5   0.5087   0.4209   0.8486  -0.1935   0.2553  -0.4609   0.00    0.0
2218 460767   44.399825351    8.937654540    96.7893   6   5   0.5085   0.4197   0.8475  -0.1932   0.2534  -0.4607   0.00    0.0
2218 460768   44.399825517    8.937654457    96.7149   6   5   0.5083   0.4187   0.8465  -0.1928   0.2517  -0.4606   0.00    0.0
2218 460769   44.399825617    8.937654620    96.6752   6   5   0.5081   0.4178   0.8456  -0.1925   0.2501  -0.4604   0.00    0.0
2218 460770   44.399825706    8.937654577    96.6304   6   5   0.5080   0.4169   0.8447  -0.1923   0.2487  -0.4603   0.00    0.0
2218 460771   44.399825820    8.937654579    96.5719   6   5   0.5078   0.4161   0.8439  -0.1921   0.2475  -0.4602   0.00    0.0
2218 460772   44.399825861    8.937654578    96.5243   6   5   0.5076   0.4154   0.8431  -0.1919   0.2463  -0.4601   0.00    0.0
2218 460773   44.399826067    8.937654529    96.4730   6   5   0.5075   0.4147   0.8424  -0.1917   0.2452  -0.4600   0.00    0.0
2218 460774   44.399826154    8.937654599    96.4099   6   5   0.5073   0.4140   0.8417  -0.1916   0.2443  -0.4599   0.00    0.0
2218 460775   44.399826225    8.937654681    96.3758   6   5   0.5072   0.4134   0.8410  -0.1915   0.2434  -0.4599   0.00    0.0
2218 460776   44.399826336    8.937654653    96.3416   6   5   0.5070   0.4128   0.8404  -0.1914   0.2426  -0.4598   0.00    0.0
2218 460777   44.399826454    8.937654821    96.2731   6   5   0.5069   0.4122   0.8398  -0.1913   0.2418  -0.4598   0.00    0.0
2218 460778   44.399827021    8.937654090    96.2383   6   4   0.5242   0.4357   0.8396  -0.2360   0.2342  -0.4564   0.00    0.0
2218 460779   44.399827046    8.937654321    96.1650   6   4   0.5240   0.4356   0.8391  -0.2360   0.2338  -0.4563   0.00    0.0
2218 460780   44.399827195    8.937654111    96.1021   6   4   0.5238   0.4352   0.8389  -0.2357   0.2335  -0.4561   0.00    0.0
2218 460781   44.399827292    8.937654185    96.0154   6   4   0.5236   0.4349   0.8387  -0.2357   0.2334  -0.4561   0.00    0.0
2218 460782   44.399827387    8.937654216    95.9418   6   5   0.5235   0.4347   0.8384  -0.2356   0.2332  -0.4560   0.00    0.0
2218 460783   44.399827424    8.937654317    95.8643   6   5   0.5233   0.4344   0.8382  -0.2355   0.2329  -0.4559   0.00    0.0
2218 460784   44.399827525    8.937654291    95.7894   6   5   0.5231   0.4341   0.8379  -0.2354   0.2327  -0.4559   0.00    0.0
2218 460785   44.399827640    8.937654145    95.7593   6   5   0.5229   0.4339   0.8376  -0.2353   0.2325  -0.4558   0.00    0.0
2218 460786   44.399827650    8.937654363    95.6586   6   5   0.5227   0.4336   0.8374  -0.2352   0.2323  -0.4557   0.00    0.0
2218 460787   44.399827752    8.937654360    95.6068   6   5   0.5226   0.4334   0.8371  -0.2351   0.2321  -0.4556   0.00    0.0
2218 460788   44.399831572    8.937643176    97.2485   6   4   0.5427   0.5396   1.0411  -0.3202  -0.3815  -0.3414   0.00    0.0
